{
  "214460106": {
    "TYP": "stop",
    "DIVA": 60200001,
    "NAME": "Absberggasse",
    "GEMEINDE": "Wien",
    "GEMEINDE_ID": 90000,
    "WGS84_LAT": 53.5904031670873,
    "WGS84_LON": 4.98301741991518,
    "STAND": 0
  },
  "214460107": {
    "TYP": "stop",
    "DIVA": 60200002,
    "NAME": "Achengasse",
    "GEMEINDE": "Wien",
    "GEMEINDE_ID": 90000,
    "WGS84_LAT": 48.2845264725406,
    "WGS84_LON": 16.4488980597136,
    "STAND": 0
  },
  "214460108": {
    "TYP": "stop",
    "DIVA": 60200003,
    "NAME": "Ada-Christen-Gasse",
    "GEMEINDE": "Wien",
    "GEMEINDE_ID": 90000,
    "WGS84_LAT": 48.1528655014217,
    "WGS84_LON": 16.3859521681894,
    "STAND": 0
  },
  "214460109": {
    "TYP": "stop",
    "DIVA": 60200004,
    "NAME": "Adam-Betz-Gasse",
    "GEMEINDE": "Wien",
    "GEMEINDE_ID": 90000,
    "WGS84_LAT": 48.2156118109229,
    "WGS84_LON": 16.5351904402337,
    "STAND": 0
  },
  "214460110": {
    "TYP": "stop",
    "DIVA": 60200005,
    "NAME": "Adamovichgasse",
    "GEMEINDE": "Wien",
    "GEMEINDE_ID": 90000,
    "WGS84_LAT": 48.1421652461723,
    "WGS84_LON": 16.3378367458808,
    "STAND": 0
  },
  "214460111": {
    "TYP": "stop",
    "DIVA": 60200006,
    "NAME": "Adolf-Loos-Gasse",
    "GEMEINDE": "Wien",
    "GEMEINDE_ID": 90000,
    "WGS84_LAT": 48.2776144403449,
    "WGS84_LON": 16.4542045453,
    "STAND": 0
  },
  "214460112": {
    "TYP": "stop",
    "DIVA": 60200007,
    "NAME": "Adolf-Unger-Gasse",
    "GEMEINDE": "Wien",
    "GEMEINDE_ID": 90000,
    "WGS84_LAT": 48.148674649638,
    "WGS84_LON": 16.3858809177188,
    "STAND": 0
  },
  "214460113": {
    "TYP": "stop",
    "DIVA": 60200008,
    "NAME": "Afritschgasse",
    "GEMEINDE": "Wien",
    "GEMEINDE_ID": 90000,
    "WGS84_LAT": 48.2469593441929,
    "WGS84_LON": 16.4517372664397,
    "STAND": 0
  },
  "214460114": {
    "TYP": "stop",
    "DIVA": 60200009,
    "NAME": "Agavenweg",
    "GEMEINDE": "Wien",
    "GEMEINDE_ID": 90000,
    "WGS84_LAT": 48.2510720280412,
    "WGS84_LON": 16.5071982136791,
    "STAND": 0
  },
  "214460115": {
    "TYP": "stop",
    "DIVA": 60200010,
    "NAME": "Neustift, Agnesgasse",
    "GEMEINDE": "Wien",
    "GEMEINDE_ID": 90000,
    "WGS84_LAT": 48.2504313192819,
    "WGS84_LON": 16.3075968062479,
    "STAND": 0
  },
  "214460116": {
    "TYP": "stop",
    "DIVA": 60200011,
    "NAME": "Aignerstraße",
    "GEMEINDE": "Wien",
    "GEMEINDE_ID": 90000,
    "WGS84_LAT": 48.2461115825284,
    "WGS84_LON": 16.3749749447243,
    "STAND": 0
  },
  "214460117": {
    "TYP": "stop",
    "DIVA": 60200012,
    "NAME": "Auf der Schmelz",
    "GEMEINDE": "Wien",
    "GEMEINDE_ID": 90000,
    "WGS84_LAT": 48.2035247270237,
    "WGS84_LON": 16.3166499725874,
    "STAND": 0
  },
  "214460118": {
    "TYP": "stop",
    "DIVA": 60200013,
    "NAME": "Morzinplatz",
    "GEMEINDE": "Wien",
    "GEMEINDE_ID": 90000,
    "WGS84_LAT": 48.2131157434495,
    "WGS84_LON": 16.3744924872232,
    "STAND": 0
  },
  "214460119": {
    "TYP": "stop",
    "DIVA": 60200014,
    "NAME": "Alaudagasse",
    "GEMEINDE": "Wien",
    "GEMEINDE_ID": 90000,
    "WGS84_LAT": 48.1542610381444,
    "WGS84_LON": 16.3821767869358,
    "STAND": 0
  },
  "214460120": {
    "TYP": "stop",
    "DIVA": 60200015,
    "NAME": "Sendnergasse",
    "GEMEINDE": "Wien",
    "GEMEINDE_ID": 90000,
    "WGS84_LAT": 48.1599833096328,
    "WGS84_LON": 16.4851731632728,
    "STAND": 0
  },
  "214460121": {
    "TYP": "stop",
    "DIVA": 60200016,
    "NAME": "Alberner Hafen",
    "GEMEINDE": "Wien",
    "GEMEINDE_ID": 90000,
    "WGS84_LAT": 48.1584957554371,
    "WGS84_LON": 16.4946316270806,
    "STAND": 0
  },
  "214460122": {
    "TYP": "stop",
    "DIVA": 60200017,
    "NAME": "Alberner Hafenzufahrtsstr.",
    "GEMEINDE": "Wien",
    "GEMEINDE_ID": 90000,
    "WGS84_LAT": 48.1720950446652,
    "WGS84_LON": 16.4724758507966,
    "STAND": 0
  },
  "214460123": {
    "TYP": "stop",
    "DIVA": 60200018,
    "NAME": "Alberner Straße",
    "GEMEINDE": "Wien",
    "GEMEINDE_ID": 90000,
    "WGS84_LAT": 48.1561799399821,
    "WGS84_LON": 16.4845573102145,
    "STAND": 0
  },
  "214460124": {
    "TYP": "stop",
    "DIVA": 60200019,
    "NAME": "Albertgasse",
    "GEMEINDE": "Wien",
    "GEMEINDE_ID": 90000,
    "WGS84_LAT": 48.2106037811822,
    "WGS84_LON": 16.3438937938373,
    "STAND": 0
  },
  "214460125": {
    "TYP": "stop",
    "DIVA": 60200020,
    "NAME": "Albertinaplatz",
    "GEMEINDE": "Wien",
    "GEMEINDE_ID": 90000,
    "WGS84_LAT": 48.2046998769998,
    "WGS84_LON": 16.3687011896039,
    "STAND": 0
  },
  "214460126": {
    "TYP": "stop",
    "DIVA": 60200021,
    "NAME": "Carminweg",
    "GEMEINDE": "Wien",
    "GEMEINDE_ID": 90000,
    "WGS84_LAT": 48.2531823773567,
    "WGS84_LON": 16.4210617474287,
    "STAND": 0
  },
  "214460127": {
    "TYP": "stop",
    "DIVA": 60200022,
    "NAME": "Algenweg",
    "GEMEINDE": "Wien",
    "GEMEINDE_ID": 90000,
    "WGS84_LAT": 48.2487940407069,
    "WGS84_LON": 16.5314816320241,
    "STAND": 0
  },
  "214460128": {
    "TYP": "stop",
    "DIVA": 60200023,
    "NAME": "Allerheiligengasse",
    "GEMEINDE": "Wien",
    "GEMEINDE_ID": 90000,
    "WGS84_LAT": 48.2380849130586,
    "WGS84_LON": 16.3871656840527,
    "STAND": 0
  },
  "214460129": {
    "TYP": "stop",
    "DIVA": 60200024,
    "NAME": "Allissen",
    "GEMEINDE": "Wien",
    "GEMEINDE_ID": 90000,
    "WGS84_LAT": 48.2863509233005,
    "WGS84_LON": 16.4301718943179,
    "STAND": 0
  },
  "214460130": {
    "TYP": "stop",
    "DIVA": 60200025,
    "NAME": "Alois-Behr-Straße",
    "GEMEINDE": "Wien",
    "GEMEINDE_ID": 90000,
    "WGS84_LAT": 48.2057443948291,
    "WGS84_LON": 16.2410926289127,
    "STAND": 0
  },
  "214460131": {
    "TYP": "stop",
    "DIVA": 60200026,
    "NAME": "Alsegger Straße",
    "GEMEINDE": "Wien",
    "GEMEINDE_ID": 90000,
    "WGS84_LAT": 48.2316835013269,
    "WGS84_LON": 16.3243656654208,
    "STAND": 0
  },
  "214460132": {
    "TYP": "stop",
    "DIVA": 60200027,
    "NAME": "Alser Straße",
    "GEMEINDE": "Wien",
    "GEMEINDE_ID": 90000,
    "WGS84_LAT": 48.2171419580228,
    "WGS84_LON": 16.3419973764724,
    "STAND": 0
  },
  "214460133": {
    "TYP": "stop",
    "DIVA": 60200028,
    "NAME": "Aichholzgasse",
    "GEMEINDE": "Wien",
    "GEMEINDE_ID": 90000,
    "WGS84_LAT": 48.1803232003424,
    "WGS84_LON": 16.3243505289938,
    "STAND": 0
  },
  "214460134": {
    "TYP": "stop",
    "DIVA": 60200029,
    "NAME": "Nußdorfer Str./Alserbachstr.",
    "GEMEINDE": "Wien",
    "GEMEINDE_ID": 90000,
    "WGS84_LAT": 48.2246499920719,
    "WGS84_LON": 16.3543129867229,
    "STAND": 0
  },
  "214460135": {
    "TYP": "stop",
    "DIVA": 60200030,
    "NAME": "Triester Str./Altdorferstraße",
    "GEMEINDE": "Wien",
    "GEMEINDE_ID": 90000,
    "WGS84_LAT": 48.1687307099108,
    "WGS84_LON": 16.349399557923,
    "STAND": 0
  },
  "214460136": {
    "TYP": "stop",
    "DIVA": 60200031,
    "NAME": "Alte Donau",
    "GEMEINDE": "Wien",
    "GEMEINDE_ID": 90000,
    "WGS84_LAT": 48.2379545722973,
    "WGS84_LON": 16.4242270895522,
    "STAND": 0
  },
  "214460137": {
    "TYP": "stop",
    "DIVA": 60200032,
    "NAME": "Aichholzgasse/Ratschkygasse",
    "GEMEINDE": "Wien",
    "GEMEINDE_ID": 90000,
    "WGS84_LAT": 48.1775981626368,
    "WGS84_LON": 16.3236115999553,
    "STAND": 0
  },
  "214460138": {
    "TYP": "stop",
    "DIVA": 60200033,
    "NAME": "Altes Landgut",
    "GEMEINDE": "Wien",
    "GEMEINDE_ID": 90000,
    "WGS84_LAT": 48.1612933433331,
    "WGS84_LON": 16.3832987793256,
    "STAND": 0
  },
  "214460139": {
    "TYP": "stop",
    "DIVA": 60200034,
    "NAME": "Althanstraße",
    "GEMEINDE": "Wien",
    "GEMEINDE_ID": 90000,
    "WGS84_LAT": 48.2288398715021,
    "WGS84_LON": 16.3595503502874,
    "STAND": 0
  },
  "214460140": {
    "TYP": "stop",
    "DIVA": 60200035,
    "NAME": "Breitenfurter St/Altmannsd Str",
    "GEMEINDE": "Wien",
    "GEMEINDE_ID": 90000,
    "WGS84_LAT": 48.1656001545246,
    "WGS84_LON": 16.3166105665297,
    "STAND": 0
  },
  "214460141": {
    "TYP": "stop",
    "DIVA": 60200036,
    "NAME": "Pfeiffenbergergasse",
    "GEMEINDE": "Wien",
    "GEMEINDE_ID": 90000,
    "WGS84_LAT": 48.1946614821341,
    "WGS84_LON": 16.2610069965506,
    "STAND": 0
  },
  "214460142": {
    "TYP": "stop",
    "DIVA": 60200037,
    "NAME": "Am Fasangarten",
    "GEMEINDE": "Wien",
    "GEMEINDE_ID": 90000,
    "WGS84_LAT": 48.1712542589416,
    "WGS84_LON": 16.3045887979422,
    "STAND": 0
  },
  "214460143": {
    "TYP": "stop",
    "DIVA": 60200038,
    "NAME": "Zanggasse",
    "GEMEINDE": "Wien",
    "GEMEINDE_ID": 90000,
    "WGS84_LAT": 48.2388009755824,
    "WGS84_LON": 16.4844461250864,
    "STAND": 0
  },
  "214460144": {
    "TYP": "stop",
    "DIVA": 60200039,
    "NAME": "Am Heidjöchl",
    "GEMEINDE": "Wien",
    "GEMEINDE_ID": 90000,
    "WGS84_LAT": 48.2368078896201,
    "WGS84_LON": 16.4887212607883,
    "STAND": 0
  },
  "214460145": {
    "TYP": "stop",
    "DIVA": 60200040,
    "NAME": "Am Himmelreich",
    "GEMEINDE": "Wien",
    "GEMEINDE_ID": 90000,
    "WGS84_LAT": 48.1639107489994,
    "WGS84_LON": 16.4381748896874,
    "STAND": 0
  },
  "214460146": {
    "TYP": "stop",
    "DIVA": 60200041,
    "NAME": "Am Hundsturm",
    "GEMEINDE": "Wien",
    "GEMEINDE_ID": 90000,
    "WGS84_LAT": 48.1867624225572,
    "WGS84_LON": 16.3474272338245,
    "STAND": 0
  },
  "214460147": {
    "TYP": "stop",
    "DIVA": 60200042,
    "NAME": "Am Kanal",
    "GEMEINDE": "Wien",
    "GEMEINDE_ID": 90000,
    "WGS84_LAT": 48.1700206961097,
    "WGS84_LON": 16.4101015617945,
    "STAND": 0
  },
  "214460148": {
    "TYP": "stop",
    "DIVA": 60200043,
    "NAME": "Am Kanal/Hasenleitengasse",
    "GEMEINDE": "Wien",
    "GEMEINDE_ID": 90000,
    "WGS84_LAT": 48.1636747710434,
    "WGS84_LON": 16.4184269658545,
    "STAND": 0
  },
  "214460149": {
    "TYP": "stop",
    "DIVA": 60200044,
    "NAME": "Am Modenapark",
    "GEMEINDE": "Wien",
    "GEMEINDE_ID": 90000,
    "WGS84_LAT": 48.1991013020413,
    "WGS84_LON": 16.3826205151837,
    "STAND": 0
  },
  "214460150": {
    "TYP": "stop",
    "DIVA": 60200045,
    "NAME": "Am Platz",
    "GEMEINDE": "Wien",
    "GEMEINDE_ID": 90000,
    "WGS84_LAT": 48.1860562827677,
    "WGS84_LON": 16.3014865292117,
    "STAND": 0
  },
  "214460151": {
    "TYP": "stop",
    "DIVA": 60200046,
    "NAME": "Am Rosenhügel",
    "GEMEINDE": "Wien",
    "GEMEINDE_ID": 90000,
    "WGS84_LAT": 48.1618786823545,
    "WGS84_LON": 16.2908968245785,
    "STAND": 0
  },
  "214460152": {
    "TYP": "stop",
    "DIVA": 60200047,
    "NAME": "Reichsbrücke",
    "GEMEINDE": "Wien",
    "GEMEINDE_ID": 90000,
    "WGS84_LAT": 48.2283330611814,
    "WGS84_LON": 16.4097413841718,
    "STAND": 0
  },
  "214460153": {
    "TYP": "stop",
    "DIVA": 60200048,
    "NAME": "Am Schöpfwerk",
    "GEMEINDE": "Wien",
    "GEMEINDE_ID": 90000,
    "WGS84_LAT": 48.1613923532238,
    "WGS84_LON": 16.3243951915565,
    "STAND": 0
  },
  "214460154": {
    "TYP": "stop",
    "DIVA": 60200049,
    "NAME": "Am Spiegeln",
    "GEMEINDE": "Wien",
    "GEMEINDE_ID": 90000,
    "WGS84_LAT": 48.1522790769279,
    "WGS84_LON": 16.2821962652613,
    "STAND": 0
  },
  "214460155": {
    "TYP": "stop",
    "DIVA": 60200050,
    "NAME": "Am Spitz",
    "GEMEINDE": "Wien",
    "GEMEINDE_ID": 90000,
    "WGS84_LAT": 48.2582066120963,
    "WGS84_LON": 16.3973806449918,
    "STAND": 0
  },
  "214460156": {
    "TYP": "stop",
    "DIVA": 60200051,
    "NAME": "Am Tabor",
    "GEMEINDE": "Wien",
    "GEMEINDE_ID": 90000,
    "WGS84_LAT": 48.2251003336531,
    "WGS84_LON": 16.3834785043091,
    "STAND": 0
  },
  "214460157": {
    "TYP": "stop",
    "DIVA": 60200052,
    "NAME": "Fünfhausgasse",
    "GEMEINDE": "Wien",
    "GEMEINDE_ID": 90000,
    "WGS84_LAT": 48.1891192075508,
    "WGS84_LON": 16.3354846491288,
    "STAND": 0
  },
  "214460158": {
    "TYP": "stop",
    "DIVA": 60200053,
    "NAME": "Gesundheitszentrum Süd",
    "GEMEINDE": "Wien",
    "GEMEINDE_ID": 90000,
    "WGS84_LAT": 48.1699092425483,
    "WGS84_LON": 16.3451379820041,
    "STAND": 0
  },
  "214460159": {
    "TYP": "stop",
    "DIVA": 60200054,
    "NAME": "Ameisbachzeile",
    "GEMEINDE": "Wien",
    "GEMEINDE_ID": 90000,
    "WGS84_LAT": 48.2011348014898,
    "WGS84_LON": 16.292261341762,
    "STAND": 0
  },
  "214460160": {
    "TYP": "stop",
    "DIVA": 60200055,
    "NAME": "Ameisgasse",
    "GEMEINDE": "Wien",
    "GEMEINDE_ID": 90000,
    "WGS84_LAT": 48.1938528193421,
    "WGS84_LON": 16.2995174743994,
    "STAND": 0
  },
  "214460161": {
    "TYP": "stop",
    "DIVA": 60200056,
    "NAME": "Neubaugasse",
    "GEMEINDE": "Wien",
    "GEMEINDE_ID": 90000,
    "WGS84_LAT": 48.1982914561528,
    "WGS84_LON": 16.3502008469297,
    "STAND": 0
  },
  "214460162": {
    "TYP": "stop",
    "DIVA": 60200057,
    "NAME": "Ammerweg",
    "GEMEINDE": "Wien",
    "GEMEINDE_ID": 90000,
    "WGS84_LAT": 48.2185111353152,
    "WGS84_LON": 16.2604338241913,
    "STAND": 0
  },
  "214460163": {
    "TYP": "stop",
    "DIVA": 60200058,
    "NAME": "Amongasse",
    "GEMEINDE": "Wien",
    "GEMEINDE_ID": 90000,
    "WGS84_LAT": 48.2301858834106,
    "WGS84_LON": 16.4694534852307,
    "STAND": 0
  },
  "214460164": {
    "TYP": "stop",
    "DIVA": 60200059,
    "NAME": "An den Steinfeldern",
    "GEMEINDE": "Wien",
    "GEMEINDE_ID": 90000,
    "WGS84_LAT": 48.1373115685791,
    "WGS84_LON": 16.2981200550447,
    "STAND": 0
  },
  "214460165": {
    "TYP": "stop",
    "DIVA": 60200060,
    "NAME": "An den alten Schanzen",
    "GEMEINDE": "Wien",
    "GEMEINDE_ID": 90000,
    "WGS84_LAT": 48.2263832862333,
    "WGS84_LON": 16.4898477622843,
    "STAND": 0
  },
  "214460166": {
    "TYP": "stop",
    "DIVA": 60200061,
    "NAME": "An den langen Lüssen",
    "GEMEINDE": "Wien",
    "GEMEINDE_ID": 90000,
    "WGS84_LAT": 48.2526560226701,
    "WGS84_LON": 16.3419071754091,
    "STAND": 0
  },
  "214460167": {
    "TYP": "stop",
    "DIVA": 60200062,
    "NAME": "An der Bien",
    "GEMEINDE": "Wien",
    "GEMEINDE_ID": 90000,
    "WGS84_LAT": 48.20713320378,
    "WGS84_LON": 16.4794977165253,
    "STAND": 0
  },
  "214460168": {
    "TYP": "stop",
    "DIVA": 60200063,
    "NAME": "An der Niederhaid",
    "GEMEINDE": "Wien",
    "GEMEINDE_ID": 90000,
    "WGS84_LAT": 48.2041367321503,
    "WGS84_LON": 16.2697378337881,
    "STAND": 0
  },
  "214460169": {
    "TYP": "stop",
    "DIVA": 60200064,
    "NAME": "Uppsalagasse",
    "GEMEINDE": "Wien",
    "GEMEINDE_ID": 90000,
    "WGS84_LAT": 48.1500709323564,
    "WGS84_LON": 16.3801974713252,
    "STAND": 0
  },
  "214460170": {
    "TYP": "stop",
    "DIVA": 60200065,
    "NAME": "Liebhartstal",
    "GEMEINDE": "Wien",
    "GEMEINDE_ID": 90000,
    "WGS84_LAT": 48.2157486504325,
    "WGS84_LON": 16.2919124483778,
    "STAND": 0
  },
  "214460171": {
    "TYP": "stop",
    "DIVA": 60200066,
    "NAME": "Angermayergasse",
    "GEMEINDE": "Wien",
    "GEMEINDE_ID": 90000,
    "WGS84_LAT": 48.1843936819334,
    "WGS84_LON": 16.2649219817327,
    "STAND": 0
  },
  "214460172": {
    "TYP": "stop",
    "DIVA": 60200067,
    "NAME": "Anschützgasse",
    "GEMEINDE": "Wien",
    "GEMEINDE_ID": 90000,
    "WGS84_LAT": 48.1903775206479,
    "WGS84_LON": 16.3230570465786,
    "STAND": 0
  },
  "214460173": {
    "TYP": "stop",
    "DIVA": 60200068,
    "NAME": "Anton-Bosch-Gasse",
    "GEMEINDE": "Wien",
    "GEMEINDE_ID": 90000,
    "WGS84_LAT": 48.2694438644929,
    "WGS84_LON": 16.3875201931019,
    "STAND": 0
  },
  "214460174": {
    "TYP": "stop",
    "DIVA": 60200069,
    "NAME": "Anton-Böck-Gasse",
    "GEMEINDE": "Wien",
    "GEMEINDE_ID": 90000,
    "WGS84_LAT": 48.2964041527535,
    "WGS84_LON": 16.3897845257993,
    "STAND": 0
  },
  "214460175": {
    "TYP": "stop",
    "DIVA": 60200070,
    "NAME": "Anton-Krieger-Gasse",
    "GEMEINDE": "Wien",
    "GEMEINDE_ID": 90000,
    "WGS84_LAT": 48.1428209501652,
    "WGS84_LON": 16.2703813138323,
    "STAND": 0
  },
  "214460176": {
    "TYP": "stop",
    "DIVA": 60200071,
    "NAME": "Doningasse",
    "GEMEINDE": "Wien",
    "GEMEINDE_ID": 90000,
    "WGS84_LAT": 48.2516190491411,
    "WGS84_LON": 16.4410559055667,
    "STAND": 0
  },
  "214460177": {
    "TYP": "stop",
    "DIVA": 60200072,
    "NAME": "Anton-Störck-Gasse",
    "GEMEINDE": "Wien",
    "GEMEINDE_ID": 90000,
    "WGS84_LAT": 48.2648669937218,
    "WGS84_LON": 16.386087858764,
    "STAND": 0
  },
  "214460178": {
    "TYP": "stop",
    "DIVA": 60200073,
    "NAME": "Antonigasse",
    "GEMEINDE": "Wien",
    "GEMEINDE_ID": 90000,
    "WGS84_LAT": 48.2259552671893,
    "WGS84_LON": 16.3297775316891,
    "STAND": 0
  },
  "214460179": {
    "TYP": "stop",
    "DIVA": 60200074,
    "NAME": "Anzengruberstraße",
    "GEMEINDE": "Wien",
    "GEMEINDE_ID": 90000,
    "WGS84_LAT": 48.2139577397542,
    "WGS84_LON": 16.2239480105477,
    "STAND": 0
  },
  "214460180": {
    "TYP": "stop",
    "DIVA": 60200075,
    "NAME": "Apostelgasse",
    "GEMEINDE": "Wien",
    "GEMEINDE_ID": 90000,
    "WGS84_LAT": 48.2004879341741,
    "WGS84_LON": 16.3981324052471,
    "STAND": 0
  },
  "214460181": {
    "TYP": "stop",
    "DIVA": 60200076,
    "NAME": "Liesing Aquädukt",
    "GEMEINDE": "Wien",
    "GEMEINDE_ID": 90000,
    "WGS84_LAT": 48.1337206244773,
    "WGS84_LON": 16.272018564433,
    "STAND": 0
  },
  "214460182": {
    "TYP": "stop",
    "DIVA": 60200077,
    "NAME": "Margaretengürtel/Arbeitergasse",
    "GEMEINDE": "Wien",
    "GEMEINDE_ID": 90000,
    "WGS84_LAT": 48.1840555872945,
    "WGS84_LON": 16.3459607945928,
    "STAND": 0
  },
  "214460183": {
    "TYP": "stop",
    "DIVA": 60200078,
    "NAME": "Arbeiterstrandbad",
    "GEMEINDE": "Wien",
    "GEMEINDE_ID": 90000,
    "WGS84_LAT": 48.2432589184685,
    "WGS84_LON": 16.4140173040894,
    "STAND": 0
  },
  "214460184": {
    "TYP": "stop",
    "DIVA": 60200079,
    "NAME": "Argentinierstraße",
    "GEMEINDE": "Wien",
    "GEMEINDE_ID": 90000,
    "WGS84_LAT": 48.1885454649176,
    "WGS84_LON": 16.376733627956,
    "STAND": 0
  },
  "214460185": {
    "TYP": "stop",
    "DIVA": 60200080,
    "NAME": "Armbrustergasse",
    "GEMEINDE": "Wien",
    "GEMEINDE_ID": 90000,
    "WGS84_LAT": 48.2538597196101,
    "WGS84_LON": 16.3548889299269,
    "STAND": 0
  },
  "214460186": {
    "TYP": "stop",
    "DIVA": 60200081,
    "NAME": "Arminenstraße",
    "GEMEINDE": "Wien",
    "GEMEINDE_ID": 90000,
    "WGS84_LAT": 48.2362798183763,
    "WGS84_LON": 16.4375917789895,
    "STAND": 0
  },
  "214460187": {
    "TYP": "stop",
    "DIVA": 60200082,
    "NAME": "Arndtstraße",
    "GEMEINDE": "Wien",
    "GEMEINDE_ID": 90000,
    "WGS84_LAT": 48.1836513078798,
    "WGS84_LON": 16.3369505510667,
    "STAND": 0
  },
  "214460188": {
    "TYP": "stop",
    "DIVA": 60200083,
    "NAME": "Breitenleer Str./Arnikaweg",
    "GEMEINDE": "Wien",
    "GEMEINDE_ID": 90000,
    "WGS84_LAT": 48.2514778604238,
    "WGS84_LON": 16.4801063995701,
    "STAND": 0
  },
  "214460189": {
    "TYP": "stop",
    "DIVA": 60200084,
    "NAME": "Arsenal",
    "GEMEINDE": "Wien",
    "GEMEINDE_ID": 90000,
    "WGS84_LAT": 48.1838029622257,
    "WGS84_LON": 16.3846238873625,
    "STAND": 0
  },
  "214460190": {
    "TYP": "stop",
    "DIVA": 60200085,
    "NAME": "Artariastraße",
    "GEMEINDE": "Wien",
    "GEMEINDE_ID": 90000,
    "WGS84_LAT": 48.2424448764058,
    "WGS84_LON": 16.281347591114,
    "STAND": 0
  },
  "214460191": {
    "TYP": "stop",
    "DIVA": 60200086,
    "NAME": "Arthaberplatz",
    "GEMEINDE": "Wien",
    "GEMEINDE_ID": 90000,
    "WGS84_LAT": 48.1724940128709,
    "WGS84_LON": 16.3721630688946,
    "STAND": 0
  },
  "214460192": {
    "TYP": "stop",
    "DIVA": 60200087,
    "NAME": "Artillerieplatz",
    "GEMEINDE": "Wien",
    "GEMEINDE_ID": 90000,
    "WGS84_LAT": 48.163946834562,
    "WGS84_LON": 16.4727231124438,
    "STAND": 0
  },
  "214460193": {
    "TYP": "stop",
    "DIVA": 60200088,
    "NAME": "Aspernallee",
    "GEMEINDE": "Wien",
    "GEMEINDE_ID": 90000,
    "WGS84_LAT": 48.1970445349693,
    "WGS84_LON": 16.4451412962311,
    "STAND": 0
  },
  "214460194": {
    "TYP": "stop",
    "DIVA": 60200089,
    "NAME": "Asperner Heldenplatz",
    "GEMEINDE": "Wien",
    "GEMEINDE_ID": 90000,
    "WGS84_LAT": 48.2170479948429,
    "WGS84_LON": 16.4832394606922,
    "STAND": 0
  },
  "214460195": {
    "TYP": "stop",
    "DIVA": 60200090,
    "NAME": "Frederick-Loewe-Weg",
    "GEMEINDE": "Wien",
    "GEMEINDE_ID": 90000,
    "WGS84_LAT": 48.2380491464579,
    "WGS84_LON": 16.4816303387743,
    "STAND": 0
  },
  "214460197": {
    "TYP": "stop",
    "DIVA": 60200092,
    "NAME": "Atzgersdorf Friedhof",
    "GEMEINDE": "Wien",
    "GEMEINDE_ID": 90000,
    "WGS84_LAT": 48.1430312653737,
    "WGS84_LON": 16.2979411458224,
    "STAND": 0
  },
  "214460198": {
    "TYP": "stop",
    "DIVA": 60200093,
    "NAME": "Atzgersdorf Kirchenplatz",
    "GEMEINDE": "Wien",
    "GEMEINDE_ID": 90000,
    "WGS84_LAT": 48.1476165792641,
    "WGS84_LON": 16.2942690078558,
    "STAND": 0
  },
  "214460199": {
    "TYP": "stop",
    "DIVA": 60200094,
    "NAME": "Atzgersdorf",
    "GEMEINDE": "Wien",
    "GEMEINDE_ID": 90000,
    "WGS84_LAT": 48.1472636956105,
    "WGS84_LON": 16.2887460708354,
    "STAND": 0
  },
  "214460200": {
    "TYP": "stop",
    "DIVA": 60200095,
    "NAME": "An der Liesing",
    "GEMEINDE": "Wien",
    "GEMEINDE_ID": 90000,
    "WGS84_LAT": 48.1389500534297,
    "WGS84_LON": 16.2640980535434,
    "STAND": 0
  },
  "214460201": {
    "TYP": "stop",
    "DIVA": 60200096,
    "NAME": "Atzgersdorfer Straße",
    "GEMEINDE": "Wien",
    "GEMEINDE_ID": 90000,
    "WGS84_LAT": 48.1705142578331,
    "WGS84_LON": 16.2963611720801,
    "STAND": 0
  },
  "214460203": {
    "TYP": "stop",
    "DIVA": 60200098,
    "NAME": "Auernheimergasse",
    "GEMEINDE": "Wien",
    "GEMEINDE_ID": 90000,
    "WGS84_LAT": 48.2031485280002,
    "WGS84_LON": 16.5181104963074,
    "STAND": 0
  },
  "214460204": {
    "TYP": "stop",
    "DIVA": 60200099,
    "NAME": "Augasse",
    "GEMEINDE": "Wien",
    "GEMEINDE_ID": 90000,
    "WGS84_LAT": 48.2297126215749,
    "WGS84_LON": 16.3574375170129,
    "STAND": 0
  },
  "214460205": {
    "TYP": "stop",
    "DIVA": 60200100,
    "NAME": "Broßmannplatz",
    "GEMEINDE": "Wien",
    "GEMEINDE_ID": 90000,
    "WGS84_LAT": 48.2518477948624,
    "WGS84_LON": 16.3986119115926,
    "STAND": 0
  },
  "214460206": {
    "TYP": "stop",
    "DIVA": 60200101,
    "NAME": "Aumannplatz",
    "GEMEINDE": "Wien",
    "GEMEINDE_ID": 90000,
    "WGS84_LAT": 48.2281587735549,
    "WGS84_LON": 16.3365609305019,
    "STAND": 0
  },
  "214460207": {
    "TYP": "stop",
    "DIVA": 60200102,
    "NAME": "Autokaderstraße",
    "GEMEINDE": "Wien",
    "GEMEINDE_ID": 90000,
    "WGS84_LAT": 48.2774475178967,
    "WGS84_LON": 16.388013233623,
    "STAND": 0
  },
  "214460208": {
    "TYP": "stop",
    "DIVA": 60200103,
    "NAME": "Aßmayergasse",
    "GEMEINDE": "Wien",
    "GEMEINDE_ID": 90000,
    "WGS84_LAT": 48.1787229920693,
    "WGS84_LON": 16.3377169357542,
    "STAND": 0
  },
  "214460209": {
    "TYP": "stop",
    "DIVA": 60200104,
    "NAME": "Bacherplatz",
    "GEMEINDE": "Wien",
    "GEMEINDE_ID": 90000,
    "WGS84_LAT": 48.1882449962796,
    "WGS84_LON": 16.3568554565461,
    "STAND": 0
  },
  "214460210": {
    "TYP": "stop",
    "DIVA": 60200105,
    "NAME": "Badeteich Süßenbrunn",
    "GEMEINDE": "Wien",
    "GEMEINDE_ID": 90000,
    "WGS84_LAT": 48.2773340060485,
    "WGS84_LON": 16.4864437857063,
    "STAND": 0
  },
  "214460211": {
    "TYP": "stop",
    "DIVA": 60200106,
    "NAME": "Badgasse",
    "GEMEINDE": "Wien",
    "GEMEINDE_ID": 90000,
    "WGS84_LAT": 48.2090115202408,
    "WGS84_LON": 16.2239991777005,
    "STAND": 0
  },
  "214460212": {
    "TYP": "stop",
    "DIVA": 60200107,
    "NAME": "Bahnhofstraße",
    "GEMEINDE": "Wien",
    "GEMEINDE_ID": 90000,
    "WGS84_LAT": 48.2015511922864,
    "WGS84_LON": 16.2623825506721,
    "STAND": 0
  },
  "214460213": {
    "TYP": "stop",
    "DIVA": 60200108,
    "NAME": "Duchekgasse",
    "GEMEINDE": "Wien",
    "GEMEINDE_ID": 90000,
    "WGS84_LAT": 48.2085544906982,
    "WGS84_LON": 16.5174569210734,
    "STAND": 0
  },
  "214460214": {
    "TYP": "stop",
    "DIVA": 60200109,
    "NAME": "Barawitzkagasse",
    "GEMEINDE": "Wien",
    "GEMEINDE_ID": 90000,
    "WGS84_LAT": 48.2446236171292,
    "WGS84_LON": 16.3556799274039,
    "STAND": 0
  },
  "214460215": {
    "TYP": "stop",
    "DIVA": 60200110,
    "NAME": "Barichgasse",
    "GEMEINDE": "Wien",
    "GEMEINDE_ID": 90000,
    "WGS84_LAT": 48.1979534567551,
    "WGS84_LON": 16.3950623475685,
    "STAND": 0
  },
  "214460216": {
    "TYP": "stop",
    "DIVA": 60200111,
    "NAME": "Morelligasse",
    "GEMEINDE": "Wien",
    "GEMEINDE_ID": 90000,
    "WGS84_LAT": 48.2504327384245,
    "WGS84_LON": 16.4041310470418,
    "STAND": 0
  },
  "214460217": {
    "TYP": "stop",
    "DIVA": 60200112,
    "NAME": "Bauernfeldplatz",
    "GEMEINDE": "Wien",
    "GEMEINDE_ID": 90000,
    "WGS84_LAT": 48.2208806512997,
    "WGS84_LON": 16.360717544507,
    "STAND": 0
  },
  "214460218": {
    "TYP": "stop",
    "DIVA": 60200113,
    "NAME": "Linzer Straße/Hochsatzengasse",
    "GEMEINDE": "Wien",
    "GEMEINDE_ID": 90000,
    "WGS84_LAT": 48.1968562321869,
    "WGS84_LON": 16.2771051929102,
    "STAND": 0
  },
  "214460219": {
    "TYP": "stop",
    "DIVA": 60200114,
    "NAME": "Baumgartner Friedhof",
    "GEMEINDE": "Wien",
    "GEMEINDE_ID": 90000,
    "WGS84_LAT": 48.2015516563432,
    "WGS84_LON": 16.2789966287146,
    "STAND": 0
  },
  "214460220": {
    "TYP": "stop",
    "DIVA": 60200115,
    "NAME": "Baumgasse",
    "GEMEINDE": "Wien",
    "GEMEINDE_ID": 90000,
    "WGS84_LAT": 48.1932895814029,
    "WGS84_LON": 16.4047548329357,
    "STAND": 0
  },
  "214460221": {
    "TYP": "stop",
    "DIVA": 60200116,
    "NAME": "Nußdorf, Beethovengang",
    "GEMEINDE": "Wien",
    "GEMEINDE_ID": 90000,
    "WGS84_LAT": 48.2594968494749,
    "WGS84_LON": 16.3628370474837,
    "STAND": 0
  },
  "214460222": {
    "TYP": "stop",
    "DIVA": 60200117,
    "NAME": "Belgradplatz",
    "GEMEINDE": "Wien",
    "GEMEINDE_ID": 90000,
    "WGS84_LAT": 48.1742776949925,
    "WGS84_LON": 16.360735594147,
    "STAND": 0
  },
  "214460223": {
    "TYP": "stop",
    "DIVA": 60200118,
    "NAME": "Bellevuestraße",
    "GEMEINDE": "Wien",
    "GEMEINDE_ID": 90000,
    "WGS84_LAT": 48.2486719492714,
    "WGS84_LON": 16.3285224692704,
    "STAND": 0
  },
  "214460224": {
    "TYP": "stop",
    "DIVA": 60200119,
    "NAME": "Jedlesee, Bellgasse",
    "GEMEINDE": "Wien",
    "GEMEINDE_ID": 90000,
    "WGS84_LAT": 48.2622495199189,
    "WGS84_LON": 16.3871627971951,
    "STAND": 0
  },
  "214460225": {
    "TYP": "stop",
    "DIVA": 60200120,
    "NAME": "Belvederegasse",
    "GEMEINDE": "Wien",
    "GEMEINDE_ID": 90000,
    "WGS84_LAT": 48.1901478501046,
    "WGS84_LON": 16.3719602469574,
    "STAND": 0
  },
  "214460226": {
    "TYP": "stop",
    "DIVA": 60200121,
    "NAME": "Benatzkygasse",
    "GEMEINDE": "Wien",
    "GEMEINDE_ID": 90000,
    "WGS84_LAT": 48.2301896699241,
    "WGS84_LON": 16.4395718491582,
    "STAND": 0
  },
  "214460227": {
    "TYP": "stop",
    "DIVA": 60200122,
    "NAME": "Berggasse",
    "GEMEINDE": "Wien",
    "GEMEINDE_ID": 90000,
    "WGS84_LAT": 48.2180655560302,
    "WGS84_LON": 16.361738930078,
    "STAND": 0
  },
  "214460228": {
    "TYP": "stop",
    "DIVA": 60200123,
    "NAME": "Bergmillergasse",
    "GEMEINDE": "Wien",
    "GEMEINDE_ID": 90000,
    "WGS84_LAT": 48.2013765855882,
    "WGS84_LON": 16.2567730463024,
    "STAND": 0
  },
  "214460229": {
    "TYP": "stop",
    "DIVA": 60200124,
    "NAME": "Yppengasse",
    "GEMEINDE": "Wien",
    "GEMEINDE_ID": 90000,
    "WGS84_LAT": 48.2147409209817,
    "WGS84_LON": 16.3359149230229,
    "STAND": 0
  },
  "214460230": {
    "TYP": "stop",
    "DIVA": 60200125,
    "NAME": "Theodor-Körner-Gasse",
    "GEMEINDE": "Wien",
    "GEMEINDE_ID": 90000,
    "WGS84_LAT": 48.2497201393457,
    "WGS84_LON": 16.4076580170522,
    "STAND": 0
  },
  "214460231": {
    "TYP": "stop",
    "DIVA": 60200126,
    "NAME": "Berlepschgasse",
    "GEMEINDE": "Wien",
    "GEMEINDE_ID": 90000,
    "WGS84_LAT": 48.142875301305,
    "WGS84_LON": 16.3826772233672,
    "STAND": 0
  },
  "214460232": {
    "TYP": "stop",
    "DIVA": 60200127,
    "NAME": "Fernkorngasse",
    "GEMEINDE": "Wien",
    "GEMEINDE_ID": 90000,
    "WGS84_LAT": 48.1740792583281,
    "WGS84_LON": 16.3633304819061,
    "STAND": 0
  },
  "214460233": {
    "TYP": "stop",
    "DIVA": 60200128,
    "NAME": "Bernreiterplatz",
    "GEMEINDE": "Wien",
    "GEMEINDE_ID": 90000,
    "WGS84_LAT": 48.2814037492239,
    "WGS84_LON": 16.4063414017441,
    "STAND": 0
  },
  "214460234": {
    "TYP": "stop",
    "DIVA": 60200129,
    "NAME": "Mühlschüttel",
    "GEMEINDE": "Wien",
    "GEMEINDE_ID": 90000,
    "WGS84_LAT": 48.2492505012591,
    "WGS84_LON": 16.4107947538085,
    "STAND": 0
  },
  "214460235": {
    "TYP": "stop",
    "DIVA": 60200130,
    "NAME": "Berzeliusgasse",
    "GEMEINDE": "Wien",
    "GEMEINDE_ID": 90000,
    "WGS84_LAT": 48.2756545400228,
    "WGS84_LON": 16.4104964143651,
    "STAND": 0
  },
  "214460236": {
    "TYP": "stop",
    "DIVA": 60200131,
    "NAME": "Beschußamt",
    "GEMEINDE": "Wien",
    "GEMEINDE_ID": 90000,
    "WGS84_LAT": 48.1773863188367,
    "WGS84_LON": 16.433992912971,
    "STAND": 0
  },
  "214460237": {
    "TYP": "stop",
    "DIVA": 60200132,
    "NAME": "Anton-Schall-Gasse",
    "GEMEINDE": "Wien",
    "GEMEINDE_ID": 90000,
    "WGS84_LAT": 48.2893204696574,
    "WGS84_LON": 16.4158526439519,
    "STAND": 0
  },
  "214460238": {
    "TYP": "stop",
    "DIVA": 60200133,
    "NAME": "Bettelheimstraße",
    "GEMEINDE": "Wien",
    "GEMEINDE_ID": 90000,
    "WGS84_LAT": 48.2789986523557,
    "WGS84_LON": 16.4924980551017,
    "STAND": 0
  },
  "214460239": {
    "TYP": "stop",
    "DIVA": 60200134,
    "NAME": "Bezirksamt Donaustadt",
    "GEMEINDE": "Wien",
    "GEMEINDE_ID": 90000,
    "WGS84_LAT": 48.2403547349385,
    "WGS84_LON": 16.4364420303183,
    "STAND": 0
  },
  "214460240": {
    "TYP": "stop",
    "DIVA": 60200135,
    "NAME": "Döblinger Hptstr./Gatterburgg.",
    "GEMEINDE": "Wien",
    "GEMEINDE_ID": 90000,
    "WGS84_LAT": 48.2389131343425,
    "WGS84_LON": 16.3546007526434,
    "STAND": 0
  },
  "214460241": {
    "TYP": "stop",
    "DIVA": 60200136,
    "NAME": "Laxenburger Str./Gudrunstr.",
    "GEMEINDE": "Wien",
    "GEMEINDE_ID": 90000,
    "WGS84_LAT": 48.1783571163006,
    "WGS84_LON": 16.3737538786577,
    "STAND": 0
  },
  "214460242": {
    "TYP": "stop",
    "DIVA": 60200137,
    "NAME": "Bezirksamt Margareten",
    "GEMEINDE": "Wien",
    "GEMEINDE_ID": 90000,
    "WGS84_LAT": 48.190673493058,
    "WGS84_LON": 16.3550003568397,
    "STAND": 0
  },
  "214460243": {
    "TYP": "stop",
    "DIVA": 60200138,
    "NAME": "Bibernellweg",
    "GEMEINDE": "Wien",
    "GEMEINDE_ID": 90000,
    "WGS84_LAT": 48.2472523341884,
    "WGS84_LON": 16.479098152733,
    "STAND": 0
  },
  "214460244": {
    "TYP": "stop",
    "DIVA": 60200139,
    "NAME": "Kretschekgasse",
    "GEMEINDE": "Wien",
    "GEMEINDE_ID": 90000,
    "WGS84_LAT": 48.2246303935529,
    "WGS84_LON": 16.2835065440258,
    "STAND": 0
  },
  "214460245": {
    "TYP": "stop",
    "DIVA": 60200140,
    "NAME": "Binsenweg",
    "GEMEINDE": "Wien",
    "GEMEINDE_ID": 90000,
    "WGS84_LAT": 48.2087064090535,
    "WGS84_LON": 16.464809715737,
    "STAND": 0
  },
  "214460246": {
    "TYP": "stop",
    "DIVA": 60200141,
    "NAME": "Biomull-Werk",
    "GEMEINDE": "Wien",
    "GEMEINDE_ID": 90000,
    "WGS84_LAT": 48.1730864092505,
    "WGS84_LON": 16.4706902606744,
    "STAND": 0
  },
  "214460247": {
    "TYP": "stop",
    "DIVA": 60200142,
    "NAME": "Bischoffgasse",
    "GEMEINDE": "Wien",
    "GEMEINDE_ID": 90000,
    "WGS84_LAT": 48.1833806438529,
    "WGS84_LON": 16.321996439052,
    "STAND": 0
  },
  "214460248": {
    "TYP": "stop",
    "DIVA": 60200143,
    "NAME": "Bischofgasse",
    "GEMEINDE": "Wien",
    "GEMEINDE_ID": 90000,
    "WGS84_LAT": 48.1380658100238,
    "WGS84_LON": 16.3976810002223,
    "STAND": 0
  },
  "214460249": {
    "TYP": "stop",
    "DIVA": 60200144,
    "NAME": "Blaasstraße",
    "GEMEINDE": "Wien",
    "GEMEINDE_ID": 90000,
    "WGS84_LAT": 48.2371248503279,
    "WGS84_LON": 16.341515028094,
    "STAND": 0
  },
  "214460250": {
    "TYP": "stop",
    "DIVA": 60200145,
    "NAME": "Blechturmgasse",
    "GEMEINDE": "Wien",
    "GEMEINDE_ID": 90000,
    "WGS84_LAT": 48.1843572856729,
    "WGS84_LON": 16.3682714061186,
    "STAND": 0
  },
  "214460251": {
    "TYP": "stop",
    "DIVA": 60200146,
    "NAME": "Bleibtreustraße",
    "GEMEINDE": "Wien",
    "GEMEINDE_ID": 90000,
    "WGS84_LAT": 48.1779209019196,
    "WGS84_LON": 16.4492557220635,
    "STAND": 0
  },
  "214460252": {
    "TYP": "stop",
    "DIVA": 60200147,
    "NAME": "Bleriotgasse",
    "GEMEINDE": "Wien",
    "GEMEINDE_ID": 90000,
    "WGS84_LAT": 48.1709719243946,
    "WGS84_LON": 16.425644997046,
    "STAND": 0
  },
  "214460253": {
    "TYP": "stop",
    "DIVA": 60200148,
    "NAME": "Blindengasse",
    "GEMEINDE": "Wien",
    "GEMEINDE_ID": 90000,
    "WGS84_LAT": 48.2109726829793,
    "WGS84_LON": 16.3404762386073,
    "STAND": 0
  },
  "214460254": {
    "TYP": "stop",
    "DIVA": 60200149,
    "NAME": "Blumengasse",
    "GEMEINDE": "Wien",
    "GEMEINDE_ID": 90000,
    "WGS84_LAT": 48.2214947334489,
    "WGS84_LON": 16.331729481883,
    "STAND": 0
  },
  "214460255": {
    "TYP": "stop",
    "DIVA": 60200150,
    "NAME": "Hetmanekgasse",
    "GEMEINDE": "Wien",
    "GEMEINDE_ID": 90000,
    "WGS84_LAT": 48.1373162575233,
    "WGS84_LON": 16.3169706259518,
    "STAND": 0
  },
  "214460256": {
    "TYP": "stop",
    "DIVA": 60200151,
    "NAME": "Bognergasse",
    "GEMEINDE": "Wien",
    "GEMEINDE_ID": 90000,
    "WGS84_LAT": 48.2100239314426,
    "WGS84_LON": 16.3684623770293,
    "STAND": 0
  },
  "214460257": {
    "TYP": "stop",
    "DIVA": 60200152,
    "NAME": "Bohattaweg",
    "GEMEINDE": "Wien",
    "GEMEINDE_ID": 90000,
    "WGS84_LAT": 48.1379431266417,
    "WGS84_LON": 16.229756866652,
    "STAND": 0
  },
  "214460258": {
    "TYP": "stop",
    "DIVA": 60200153,
    "NAME": "Borkowskigasse",
    "GEMEINDE": "Wien",
    "GEMEINDE_ID": 90000,
    "WGS84_LAT": 48.2371248231512,
    "WGS84_LON": 16.3301934714925,
    "STAND": 0
  },
  "214460259": {
    "TYP": "stop",
    "DIVA": 60200154,
    "NAME": "Bossigasse",
    "GEMEINDE": "Wien",
    "GEMEINDE_ID": 90000,
    "WGS84_LAT": 48.1873251064474,
    "WGS84_LON": 16.280545625989,
    "STAND": 0
  },
  "214460260": {
    "TYP": "stop",
    "DIVA": 60200155,
    "NAME": "Maculangasse/Wagramer Straße",
    "GEMEINDE": "Wien",
    "GEMEINDE_ID": 90000,
    "WGS84_LAT": 48.2624885372799,
    "WGS84_LON": 16.4536848322442,
    "STAND": 0
  },
  "214460261": {
    "TYP": "stop",
    "DIVA": 60200156,
    "NAME": "Braillegasse",
    "GEMEINDE": "Wien",
    "GEMEINDE_ID": 90000,
    "WGS84_LAT": 48.2027724916687,
    "WGS84_LON": 16.2947487509893,
    "STAND": 0
  },
  "214460262": {
    "TYP": "stop",
    "DIVA": 60200157,
    "NAME": "Brandstätte",
    "GEMEINDE": "Wien",
    "GEMEINDE_ID": 90000,
    "WGS84_LAT": 48.2102661468936,
    "WGS84_LON": 16.3705345958529,
    "STAND": 0
  },
  "214460263": {
    "TYP": "stop",
    "DIVA": 60200158,
    "NAME": "Braungasse",
    "GEMEINDE": "Wien",
    "GEMEINDE_ID": 90000,
    "WGS84_LAT": 48.226919720798,
    "WGS84_LON": 16.296048303494,
    "STAND": 0
  },
  "214460264": {
    "TYP": "stop",
    "DIVA": 60200159,
    "NAME": "Grimmgasse",
    "GEMEINDE": "Wien",
    "GEMEINDE_ID": 90000,
    "WGS84_LAT": 48.1868885986349,
    "WGS84_LON": 16.3280474597391,
    "STAND": 0
  },
  "214460265": {
    "TYP": "stop",
    "DIVA": 60200160,
    "NAME": "Braunhubergasse",
    "GEMEINDE": "Wien",
    "GEMEINDE_ID": 90000,
    "WGS84_LAT": 48.171786540283,
    "WGS84_LON": 16.4186685075455,
    "STAND": 0
  },
  "214460266": {
    "TYP": "stop",
    "DIVA": 60200161,
    "NAME": "Braunschweiggasse",
    "GEMEINDE": "Wien",
    "GEMEINDE_ID": 90000,
    "WGS84_LAT": 48.1894897305607,
    "WGS84_LON": 16.295458822267,
    "STAND": 0
  },
  "214460267": {
    "TYP": "stop",
    "DIVA": 60200162,
    "NAME": "Scheffelstraße",
    "GEMEINDE": "Wien",
    "GEMEINDE_ID": 90000,
    "WGS84_LAT": 48.2516639545786,
    "WGS84_LON": 16.4055465920243,
    "STAND": 0
  },
  "214460268": {
    "TYP": "stop",
    "DIVA": 60200163,
    "NAME": "Breiteneckergasse",
    "GEMEINDE": "Wien",
    "GEMEINDE_ID": 90000,
    "WGS84_LAT": 48.1440266727135,
    "WGS84_LON": 16.329290458454,
    "STAND": 0
  },
  "214460269": {
    "TYP": "stop",
    "DIVA": 60200164,
    "NAME": "Breitenlee Friedhof",
    "GEMEINDE": "Wien",
    "GEMEINDE_ID": 90000,
    "WGS84_LAT": 48.2511643402464,
    "WGS84_LON": 16.4929114061898,
    "STAND": 0
  },
  "214460270": {
    "TYP": "stop",
    "DIVA": 60200165,
    "NAME": "Breitenlee Ort",
    "GEMEINDE": "Wien",
    "GEMEINDE_ID": 90000,
    "WGS84_LAT": 48.2511938469245,
    "WGS84_LON": 16.4975840993744,
    "STAND": 0
  },
  "214460271": {
    "TYP": "stop",
    "DIVA": 60200166,
    "NAME": "Breitensee",
    "GEMEINDE": "Wien",
    "GEMEINDE_ID": 90000,
    "WGS84_LAT": 48.1986751748686,
    "WGS84_LON": 16.3063745283115,
    "STAND": 0
  },
  "214460272": {
    "TYP": "stop",
    "DIVA": 60200167,
    "NAME": "Roschegasse",
    "GEMEINDE": "Wien",
    "GEMEINDE_ID": 90000,
    "WGS84_LAT": 48.153934778949,
    "WGS84_LON": 16.4502916491451,
    "STAND": 0
  },
  "214460273": {
    "TYP": "stop",
    "DIVA": 60200168,
    "NAME": "Bretschneidergasse",
    "GEMEINDE": "Wien",
    "GEMEINDE_ID": 90000,
    "WGS84_LAT": 48.2542383359508,
    "WGS84_LON": 16.3481288808674,
    "STAND": 0
  },
  "214460274": {
    "TYP": "stop",
    "DIVA": 60200169,
    "NAME": "Brigittagasse",
    "GEMEINDE": "Wien",
    "GEMEINDE_ID": 90000,
    "WGS84_LAT": 48.2332784129269,
    "WGS84_LON": 16.3747229321936,
    "STAND": 0
  },
  "214460275": {
    "TYP": "stop",
    "DIVA": 60200170,
    "NAME": "Brigittaplatz",
    "GEMEINDE": "Wien",
    "GEMEINDE_ID": 90000,
    "WGS84_LAT": 48.2326412863523,
    "WGS84_LON": 16.3703342188088,
    "STAND": 0
  },
  "214460276": {
    "TYP": "stop",
    "DIVA": 60200171,
    "NAME": "Brockhausengasse",
    "GEMEINDE": "Wien",
    "GEMEINDE_ID": 90000,
    "WGS84_LAT": 48.2076938586477,
    "WGS84_LON": 16.4770102346429,
    "STAND": 0
  },
  "214460277": {
    "TYP": "stop",
    "DIVA": 60200172,
    "NAME": "Thaliastraße/Brunnengasse",
    "GEMEINDE": "Wien",
    "GEMEINDE_ID": 90000,
    "WGS84_LAT": 48.2090482144681,
    "WGS84_LON": 16.3354305793595,
    "STAND": 0
  },
  "214460278": {
    "TYP": "stop",
    "DIVA": 60200173,
    "NAME": "Neulerchenfelder Str./Brunneng",
    "GEMEINDE": "Wien",
    "GEMEINDE_ID": 90000,
    "WGS84_LAT": 48.21108967672,
    "WGS84_LON": 16.3359418487962,
    "STAND": 0
  },
  "214460279": {
    "TYP": "stop",
    "DIVA": 60200174,
    "NAME": "Brunner Str./Erlaaer Str.",
    "GEMEINDE": "Wien",
    "GEMEINDE_ID": 90000,
    "WGS84_LAT": 48.1461965326586,
    "WGS84_LON": 16.2968099867969,
    "STAND": 0
  },
  "214460280": {
    "TYP": "stop",
    "DIVA": 60200175,
    "NAME": "Brückengasse",
    "GEMEINDE": "Wien",
    "GEMEINDE_ID": 90000,
    "WGS84_LAT": 48.1913039964332,
    "WGS84_LON": 16.3476030819687,
    "STAND": 0
  },
  "214460281": {
    "TYP": "stop",
    "DIVA": 60200176,
    "NAME": "Brünner Straße",
    "GEMEINDE": "Wien",
    "GEMEINDE_ID": 90000,
    "WGS84_LAT": 48.2680508167567,
    "WGS84_LON": 16.40325191761,
    "STAND": 0
  },
  "214460282": {
    "TYP": "stop",
    "DIVA": 60200177,
    "NAME": "Bergtaidingweg",
    "GEMEINDE": "Wien",
    "GEMEINDE_ID": 90000,
    "WGS84_LAT": 48.1466096630532,
    "WGS84_LON": 16.3973149411723,
    "STAND": 0
  },
  "214460283": {
    "TYP": "stop",
    "DIVA": 60200178,
    "NAME": "Brünnlbadgasse",
    "GEMEINDE": "Wien",
    "GEMEINDE_ID": 90000,
    "WGS84_LAT": 48.2153970240994,
    "WGS84_LON": 16.3457380342518,
    "STAND": 0
  },
  "214460284": {
    "TYP": "stop",
    "DIVA": 60200179,
    "NAME": "Brüßlgasse",
    "GEMEINDE": "Wien",
    "GEMEINDE_ID": 90000,
    "WGS84_LAT": 48.20606138758,
    "WGS84_LON": 16.3203757340005,
    "STAND": 0
  },
  "214460285": {
    "TYP": "stop",
    "DIVA": 60200180,
    "NAME": "Bubergasse",
    "GEMEINDE": "Wien",
    "GEMEINDE_ID": 90000,
    "WGS84_LAT": 48.270449689818,
    "WGS84_LON": 16.4514804137061,
    "STAND": 0
  },
  "214460286": {
    "TYP": "stop",
    "DIVA": 60200181,
    "NAME": "Buchbindergasse",
    "GEMEINDE": "Wien",
    "GEMEINDE_ID": 90000,
    "WGS84_LAT": 48.1636943854821,
    "WGS84_LON": 16.2703277549744,
    "STAND": 0
  },
  "214460287": {
    "TYP": "stop",
    "DIVA": 60200182,
    "NAME": "Grünhaufenbrücke",
    "GEMEINDE": "Wien",
    "GEMEINDE_ID": 90000,
    "WGS84_LAT": 48.1909021337207,
    "WGS84_LON": 16.454260756209,
    "STAND": 0
  },
  "214460288": {
    "TYP": "stop",
    "DIVA": 60200183,
    "NAME": "Computerstr./Gutheil-Schoder-G",
    "GEMEINDE": "Wien",
    "GEMEINDE_ID": 90000,
    "WGS84_LAT": 48.1599720096998,
    "WGS84_LON": 16.3368695239827,
    "STAND": 0
  },
  "214460289": {
    "TYP": "stop",
    "DIVA": 60200184,
    "NAME": "Hütteldorf, Bujattigasse",
    "GEMEINDE": "Wien",
    "GEMEINDE_ID": 90000,
    "WGS84_LAT": 48.2026345013851,
    "WGS84_LON": 16.2551432927708,
    "STAND": 0
  },
  "214460290": {
    "TYP": "stop",
    "DIVA": 60200185,
    "NAME": "Bundessportbad",
    "GEMEINDE": "Wien",
    "GEMEINDE_ID": 90000,
    "WGS84_LAT": 48.2402056098645,
    "WGS84_LON": 16.4205690656116,
    "STAND": 0
  },
  "214460291": {
    "TYP": "stop",
    "DIVA": 60200186,
    "NAME": "Bunsengasse",
    "GEMEINDE": "Wien",
    "GEMEINDE_ID": 90000,
    "WGS84_LAT": 48.2631020675308,
    "WGS84_LON": 16.3910696087499,
    "STAND": 0
  },
  "214460292": {
    "TYP": "stop",
    "DIVA": 60200187,
    "NAME": "Burgersteingasse",
    "GEMEINDE": "Wien",
    "GEMEINDE_ID": 90000,
    "WGS84_LAT": 48.2025668532991,
    "WGS84_LON": 16.2982466863255,
    "STAND": 0
  },
  "214460293": {
    "TYP": "stop",
    "DIVA": 60200188,
    "NAME": "Burggasse-Stadthalle",
    "GEMEINDE": "Wien",
    "GEMEINDE_ID": 90000,
    "WGS84_LAT": 48.2022942993317,
    "WGS84_LON": 16.337314075917,
    "STAND": 0
  },
  "214460294": {
    "TYP": "stop",
    "DIVA": 60200189,
    "NAME": "Campingplatz Wien-West 2",
    "GEMEINDE": "Wien",
    "GEMEINDE_ID": 90000,
    "WGS84_LAT": 48.2145104625357,
    "WGS84_LON": 16.249540288322,
    "STAND": 0
  },
  "214460295": {
    "TYP": "stop",
    "DIVA": 60200190,
    "NAME": "Burgring",
    "GEMEINDE": "Wien",
    "GEMEINDE_ID": 90000,
    "WGS84_LAT": 48.2039277620677,
    "WGS84_LON": 16.3637229731101,
    "STAND": 0
  },
  "214460296": {
    "TYP": "stop",
    "DIVA": 60200191,
    "NAME": "Burgstall",
    "GEMEINDE": "Wien",
    "GEMEINDE_ID": 90000,
    "WGS84_LAT": 48.2699921817379,
    "WGS84_LON": 16.3612933915057,
    "STAND": 0
  },
  "214460297": {
    "TYP": "stop",
    "DIVA": 60200192,
    "NAME": "Rathausplatz/Burgtheater",
    "GEMEINDE": "Wien",
    "GEMEINDE_ID": 90000,
    "WGS84_LAT": 48.2103945887162,
    "WGS84_LON": 16.3606317945474,
    "STAND": 0
  },
  "214460298": {
    "TYP": "stop",
    "DIVA": 60200193,
    "NAME": "Bärenmühldurchgang",
    "GEMEINDE": "Wien",
    "GEMEINDE_ID": 90000,
    "WGS84_LAT": 48.199511441325,
    "WGS84_LON": 16.3662899640945,
    "STAND": 0
  },
  "214460299": {
    "TYP": "stop",
    "DIVA": 60200194,
    "NAME": "Börnergasse",
    "GEMEINDE": "Wien",
    "GEMEINDE_ID": 90000,
    "WGS84_LAT": 48.2475659546336,
    "WGS84_LON": 16.3316329922454,
    "STAND": 0
  },
  "214460300": {
    "TYP": "stop",
    "DIVA": 60200195,
    "NAME": "Börse",
    "GEMEINDE": "Wien",
    "GEMEINDE_ID": 90000,
    "WGS84_LAT": 48.2155644157374,
    "WGS84_LON": 16.366003350365,
    "STAND": 0
  },
  "214460301": {
    "TYP": "stop",
    "DIVA": 60200196,
    "NAME": "Bösendorferstraße",
    "GEMEINDE": "Wien",
    "GEMEINDE_ID": 90000,
    "WGS84_LAT": 48.2012728521318,
    "WGS84_LON": 16.370770720784,
    "STAND": 0
  },
  "214460302": {
    "TYP": "stop",
    "DIVA": 60200197,
    "NAME": "Camillo-Sitte-Gasse",
    "GEMEINDE": "Wien",
    "GEMEINDE_ID": 90000,
    "WGS84_LAT": 48.2050009279109,
    "WGS84_LON": 16.327304661863,
    "STAND": 0
  },
  "214460303": {
    "TYP": "stop",
    "DIVA": 60200198,
    "NAME": "Breitenfurter Str./Willergasse",
    "GEMEINDE": "Wien",
    "GEMEINDE_ID": 90000,
    "WGS84_LAT": 48.138064567319,
    "WGS84_LON": 16.2577708885788,
    "STAND": 0
  },
  "214460304": {
    "TYP": "stop",
    "DIVA": 60200199,
    "NAME": "Campingplatz Wien-Süd",
    "GEMEINDE": "Wien",
    "GEMEINDE_ID": 90000,
    "WGS84_LAT": 48.1498396910128,
    "WGS84_LON": 16.2994278423862,
    "STAND": 0
  },
  "214460305": {
    "TYP": "stop",
    "DIVA": 60200200,
    "NAME": "Campingplatz Wien-West 1",
    "GEMEINDE": "Wien",
    "GEMEINDE_ID": 90000,
    "WGS84_LAT": 48.2112848235989,
    "WGS84_LON": 16.253515024024,
    "STAND": 0
  },
  "214460306": {
    "TYP": "stop",
    "DIVA": 60200201,
    "NAME": "Campingplatzweg",
    "GEMEINDE": "Wien",
    "GEMEINDE_ID": 90000,
    "WGS84_LAT": 48.2758299837655,
    "WGS84_LON": 16.4811313323989,
    "STAND": 0
  },
  "214460307": {
    "TYP": "stop",
    "DIVA": 60200202,
    "NAME": "Canisiusgasse",
    "GEMEINDE": "Wien",
    "GEMEINDE_ID": 90000,
    "WGS84_LAT": 48.2280493384189,
    "WGS84_LON": 16.3548121973709,
    "STAND": 0
  },
  "214460308": {
    "TYP": "stop",
    "DIVA": 60200203,
    "NAME": "Carabelligasse",
    "GEMEINDE": "Wien",
    "GEMEINDE_ID": 90000,
    "WGS84_LAT": 48.2802138422214,
    "WGS84_LON": 16.410812918561,
    "STAND": 0
  },
  "214460309": {
    "TYP": "stop",
    "DIVA": 60200204,
    "NAME": "Carlbergergasse",
    "GEMEINDE": "Wien",
    "GEMEINDE_ID": 90000,
    "WGS84_LAT": 48.1412146188079,
    "WGS84_LON": 16.2979559303474,
    "STAND": 0
  },
  "214460310": {
    "TYP": "stop",
    "DIVA": 60200205,
    "NAME": "Castelligasse",
    "GEMEINDE": "Wien",
    "GEMEINDE_ID": 90000,
    "WGS84_LAT": 48.1886404230892,
    "WGS84_LON": 16.3583350405641,
    "STAND": 0
  },
  "214460311": {
    "TYP": "stop",
    "DIVA": 60200206,
    "NAME": "Celtesgasse",
    "GEMEINDE": "Wien",
    "GEMEINDE_ID": 90000,
    "WGS84_LAT": 48.2518218759507,
    "WGS84_LON": 16.2962308340919,
    "STAND": 0
  },
  "214460312": {
    "TYP": "stop",
    "DIVA": 60200207,
    "NAME": "Hafen Freudenau",
    "GEMEINDE": "Wien",
    "GEMEINDE_ID": 90000,
    "WGS84_LAT": 48.1766691256846,
    "WGS84_LON": 16.4753923542858,
    "STAND": 0
  },
  "214460313": {
    "TYP": "stop",
    "DIVA": 60200208,
    "NAME": "Chimanistraße",
    "GEMEINDE": "Wien",
    "GEMEINDE_ID": 90000,
    "WGS84_LAT": 48.2395079065993,
    "WGS84_LON": 16.3438712406322,
    "STAND": 0
  },
  "214460314": {
    "TYP": "stop",
    "DIVA": 60200209,
    "NAME": "Cobenzl Parkplatz",
    "GEMEINDE": "Wien",
    "GEMEINDE_ID": 90000,
    "WGS84_LAT": 48.2638696398752,
    "WGS84_LON": 16.3211526501682,
    "STAND": 0
  },
  "214460315": {
    "TYP": "stop",
    "DIVA": 60200210,
    "NAME": "Cobenzlgasse",
    "GEMEINDE": "Wien",
    "GEMEINDE_ID": 90000,
    "WGS84_LAT": 48.2639423969221,
    "WGS84_LON": 16.3300018000652,
    "STAND": 0
  },
  "214460316": {
    "TYP": "stop",
    "DIVA": 60200211,
    "NAME": "Columbusplatz",
    "GEMEINDE": "Wien",
    "GEMEINDE_ID": 90000,
    "WGS84_LAT": 48.1820353736139,
    "WGS84_LON": 16.3737162273036,
    "STAND": 0
  },
  "214460317": {
    "TYP": "stop",
    "DIVA": 60200212,
    "NAME": "Triester Str./Computerstr.",
    "GEMEINDE": "Wien",
    "GEMEINDE_ID": 90000,
    "WGS84_LAT": 48.1576336041074,
    "WGS84_LON": 16.3420174734019,
    "STAND": 0
  },
  "214460318": {
    "TYP": "stop",
    "DIVA": 60200213,
    "NAME": "Concordiaplatz",
    "GEMEINDE": "Wien",
    "GEMEINDE_ID": 90000,
    "WGS84_LAT": 48.2137016939616,
    "WGS84_LON": 16.3700659415511,
    "STAND": 0
  },
  "214460319": {
    "TYP": "stop",
    "DIVA": 60200214,
    "NAME": "Corvinusgasse",
    "GEMEINDE": "Wien",
    "GEMEINDE_ID": 90000,
    "WGS84_LAT": 48.1445621202724,
    "WGS84_LON": 16.2807396311139,
    "STAND": 0
  },
  "214460320": {
    "TYP": "stop",
    "DIVA": 60200215,
    "NAME": "Cottagegasse",
    "GEMEINDE": "Wien",
    "GEMEINDE_ID": 90000,
    "WGS84_LAT": 48.2338513032104,
    "WGS84_LON": 16.342133897909,
    "STAND": 0
  },
  "214460321": {
    "TYP": "stop",
    "DIVA": 60200216,
    "NAME": "Cottagestraße",
    "GEMEINDE": "Wien",
    "GEMEINDE_ID": 90000,
    "WGS84_LAT": 48.2151651012976,
    "WGS84_LON": 16.226300219127,
    "STAND": 0
  },
  "214460322": {
    "TYP": "stop",
    "DIVA": 60200217,
    "NAME": "Czartoryskigasse",
    "GEMEINDE": "Wien",
    "GEMEINDE_ID": 90000,
    "WGS84_LAT": 48.2278077122106,
    "WGS84_LON": 16.3274487961606,
    "STAND": 0
  },
  "214460323": {
    "TYP": "stop",
    "DIVA": 60200218,
    "NAME": "Dahliengasse",
    "GEMEINDE": "Wien",
    "GEMEINDE_ID": 90000,
    "WGS84_LAT": 48.2869134936932,
    "WGS84_LON": 16.4449012101798,
    "STAND": 0
  },
  "214460324": {
    "TYP": "stop",
    "DIVA": 60200219,
    "NAME": "Dammstraße",
    "GEMEINDE": "Wien",
    "GEMEINDE_ID": 90000,
    "WGS84_LAT": 48.2346002691765,
    "WGS84_LON": 16.3751412282535,
    "STAND": 0
  },
  "214460325": {
    "TYP": "stop",
    "DIVA": 60200220,
    "NAME": "Dampfkraftwerk Donaustadt",
    "GEMEINDE": "Wien",
    "GEMEINDE_ID": 90000,
    "WGS84_LAT": 48.1980276399353,
    "WGS84_LON": 16.4600883024774,
    "STAND": 0
  },
  "214460326": {
    "TYP": "stop",
    "DIVA": 60200221,
    "NAME": "Dampfschiffhaufen",
    "GEMEINDE": "Wien",
    "GEMEINDE_ID": 90000,
    "WGS84_LAT": 48.2171379230861,
    "WGS84_LON": 16.4322250672602,
    "STAND": 0
  },
  "214460327": {
    "TYP": "stop",
    "DIVA": 60200222,
    "NAME": "Danzergasse",
    "GEMEINDE": "Wien",
    "GEMEINDE_ID": 90000,
    "WGS84_LAT": 48.2087312653351,
    "WGS84_LON": 16.4886109263783,
    "STAND": 0
  },
  "214460328": {
    "TYP": "stop",
    "DIVA": 60200223,
    "NAME": "Daphneweg",
    "GEMEINDE": "Wien",
    "GEMEINDE_ID": 90000,
    "WGS84_LAT": 48.2443534981159,
    "WGS84_LON": 16.5302529690467,
    "STAND": 0
  },
  "214460329": {
    "TYP": "stop",
    "DIVA": 60200224,
    "NAME": "Daringergasse",
    "GEMEINDE": "Wien",
    "GEMEINDE_ID": 90000,
    "WGS84_LAT": 48.2466487282395,
    "WGS84_LON": 16.3344606211334,
    "STAND": 0
  },
  "214460330": {
    "TYP": "stop",
    "DIVA": 60200225,
    "NAME": "Davidgasse",
    "GEMEINDE": "Wien",
    "GEMEINDE_ID": 90000,
    "WGS84_LAT": 48.1754746593955,
    "WGS84_LON": 16.3563259211005,
    "STAND": 0
  },
  "214460331": {
    "TYP": "stop",
    "DIVA": 60200226,
    "NAME": "Deindorfstraße",
    "GEMEINDE": "Wien",
    "GEMEINDE_ID": 90000,
    "WGS84_LAT": 48.2168567106049,
    "WGS84_LON": 16.543202009235,
    "STAND": 0
  },
  "214460332": {
    "TYP": "stop",
    "DIVA": 60200227,
    "NAME": "Deißenhofergasse",
    "GEMEINDE": "Wien",
    "GEMEINDE_ID": 90000,
    "WGS84_LAT": 48.1585466446219,
    "WGS84_LON": 16.2805901634691,
    "STAND": 0
  },
  "214460333": {
    "TYP": "stop",
    "DIVA": 60200228,
    "NAME": "Laxenburger Str./Heizwerkstr.",
    "GEMEINDE": "Wien",
    "GEMEINDE_ID": 90000,
    "WGS84_LAT": 48.1396089305799,
    "WGS84_LON": 16.3587438594569,
    "STAND": 0
  },
  "214460334": {
    "TYP": "stop",
    "DIVA": 60200229,
    "NAME": "Dietmayrgasse",
    "GEMEINDE": "Wien",
    "GEMEINDE_ID": 90000,
    "WGS84_LAT": 48.23931470646,
    "WGS84_LON": 16.3686693057441,
    "STAND": 0
  },
  "214460335": {
    "TYP": "stop",
    "DIVA": 60200230,
    "NAME": "Dirnelwiese",
    "GEMEINDE": "Wien",
    "GEMEINDE_ID": 90000,
    "WGS84_LAT": 48.2929102580067,
    "WGS84_LON": 16.3792960118997,
    "STAND": 0
  },
  "214460336": {
    "TYP": "stop",
    "DIVA": 60200231,
    "NAME": "Dobrowskygasse",
    "GEMEINDE": "Wien",
    "GEMEINDE_ID": 90000,
    "WGS84_LAT": 48.1435501463009,
    "WGS84_LON": 16.3317361524909,
    "STAND": 0
  },
  "214460337": {
    "TYP": "stop",
    "DIVA": 60200232,
    "NAME": "Doeltergasse",
    "GEMEINDE": "Wien",
    "GEMEINDE_ID": 90000,
    "WGS84_LAT": 48.2594905723397,
    "WGS84_LON": 16.4382572237829,
    "STAND": 0
  },
  "214460338": {
    "TYP": "stop",
    "DIVA": 60200233,
    "NAME": "Dommayergasse",
    "GEMEINDE": "Wien",
    "GEMEINDE_ID": 90000,
    "WGS84_LAT": 48.186469169544,
    "WGS84_LON": 16.2989175402666,
    "STAND": 0
  },
  "214460339": {
    "TYP": "stop",
    "DIVA": 60200234,
    "NAME": "Donauinsel",
    "GEMEINDE": "Wien",
    "GEMEINDE_ID": 90000,
    "WGS84_LAT": 48.2289977570521,
    "WGS84_LON": 16.4109806469739,
    "STAND": 0
  },
  "214460340": {
    "TYP": "stop",
    "DIVA": 60200235,
    "NAME": "Floridsdorfer Brücke",
    "GEMEINDE": "Wien",
    "GEMEINDE_ID": 90000,
    "WGS84_LAT": 48.2485616932543,
    "WGS84_LON": 16.3877416381315,
    "STAND": 0
  },
  "214460341": {
    "TYP": "stop",
    "DIVA": 60200236,
    "NAME": "Donaustadtstraße",
    "GEMEINDE": "Wien",
    "GEMEINDE_ID": 90000,
    "WGS84_LAT": 48.2336842449863,
    "WGS84_LON": 16.4436845332598,
    "STAND": 0
  },
  "214460342": {
    "TYP": "stop",
    "DIVA": 60200237,
    "NAME": "Donauwarte",
    "GEMEINDE": "Wien",
    "GEMEINDE_ID": 90000,
    "WGS84_LAT": 48.284554360637,
    "WGS84_LON": 16.3459800643968,
    "STAND": 0
  },
  "214460343": {
    "TYP": "stop",
    "DIVA": 60200238,
    "NAME": "Donauzentrum",
    "GEMEINDE": "Wien",
    "GEMEINDE_ID": 90000,
    "WGS84_LAT": 48.2418311604449,
    "WGS84_LON": 16.4346543042013,
    "STAND": 0
  },
  "214460344": {
    "TYP": "stop",
    "DIVA": 60200239,
    "NAME": "Dopschstraße",
    "GEMEINDE": "Wien",
    "GEMEINDE_ID": 90000,
    "WGS84_LAT": 48.2692386193744,
    "WGS84_LON": 16.4388289339069,
    "STAND": 0
  },
  "214460345": {
    "TYP": "stop",
    "DIVA": 60200240,
    "NAME": "Dorfmeistergasse",
    "GEMEINDE": "Wien",
    "GEMEINDE_ID": 90000,
    "WGS84_LAT": 48.1645246668443,
    "WGS84_LON": 16.2961776006924,
    "STAND": 0
  },
  "214460346": {
    "TYP": "stop",
    "DIVA": 60200241,
    "NAME": "Dornbacher Straße",
    "GEMEINDE": "Wien",
    "GEMEINDE_ID": 90000,
    "WGS84_LAT": 48.2281626647266,
    "WGS84_LON": 16.3018753688514,
    "STAND": 0
  },
  "214460347": {
    "TYP": "stop",
    "DIVA": 60200242,
    "NAME": "Dostalgasse",
    "GEMEINDE": "Wien",
    "GEMEINDE_ID": 90000,
    "WGS84_LAT": 48.1597332612851,
    "WGS84_LON": 16.2635581748637,
    "STAND": 0
  },
  "214460348": {
    "TYP": "stop",
    "DIVA": 60200243,
    "NAME": "Dostgasse",
    "GEMEINDE": "Wien",
    "GEMEINDE_ID": 90000,
    "WGS84_LAT": 48.2201518853541,
    "WGS84_LON": 16.2531777758467,
    "STAND": 0
  },
  "214460349": {
    "TYP": "stop",
    "DIVA": 60200244,
    "NAME": "Dr.-Adolf-Schärf-Heim",
    "GEMEINDE": "Wien",
    "GEMEINDE_ID": 90000,
    "WGS84_LAT": 48.245879263821,
    "WGS84_LON": 16.3702353300297,
    "STAND": 0
  },
  "214460350": {
    "TYP": "stop",
    "DIVA": 60200245,
    "NAME": "Stubentor",
    "GEMEINDE": "Wien",
    "GEMEINDE_ID": 90000,
    "WGS84_LAT": 48.2070702273922,
    "WGS84_LON": 16.380273252244,
    "STAND": 0
  },
  "214460351": {
    "TYP": "stop",
    "DIVA": 60200246,
    "NAME": "Dr.-Karl-Renner-Ring",
    "GEMEINDE": "Wien",
    "GEMEINDE_ID": 90000,
    "WGS84_LAT": 48.2065365888451,
    "WGS84_LON": 16.3601994264737,
    "STAND": 0
  },
  "214460352": {
    "TYP": "stop",
    "DIVA": 60200247,
    "NAME": "Dr.-Neumann-Gasse",
    "GEMEINDE": "Wien",
    "GEMEINDE_ID": 90000,
    "WGS84_LAT": 48.1379912587061,
    "WGS84_LON": 16.2879753119803,
    "STAND": 0
  },
  "214460353": {
    "TYP": "stop",
    "DIVA": 60200248,
    "NAME": "Dr.-Schober-Straße",
    "GEMEINDE": "Wien",
    "GEMEINDE_ID": 90000,
    "WGS84_LAT": 48.166762409976,
    "WGS84_LON": 16.2726630158501,
    "STAND": 0
  },
  "214460354": {
    "TYP": "stop",
    "DIVA": 60200249,
    "NAME": "Draugasse",
    "GEMEINDE": "Wien",
    "GEMEINDE_ID": 90000,
    "WGS84_LAT": 48.285471363025,
    "WGS84_LON": 16.4386324033274,
    "STAND": 0
  },
  "214460355": {
    "TYP": "stop",
    "DIVA": 60200250,
    "NAME": "Dunantgasse",
    "GEMEINDE": "Wien",
    "GEMEINDE_ID": 90000,
    "WGS84_LAT": 48.2600274195487,
    "WGS84_LON": 16.3889248973263,
    "STAND": 0
  },
  "214460356": {
    "TYP": "stop",
    "DIVA": 60200251,
    "NAME": "Dänenstraße",
    "GEMEINDE": "Wien",
    "GEMEINDE_ID": 90000,
    "WGS84_LAT": 48.2370979861038,
    "WGS84_LON": 16.334555165947,
    "STAND": 0
  },
  "214460357": {
    "TYP": "stop",
    "DIVA": 60200252,
    "NAME": "Döblinger Bad",
    "GEMEINDE": "Wien",
    "GEMEINDE_ID": 90000,
    "WGS84_LAT": 48.2512333063565,
    "WGS84_LON": 16.3572714017177,
    "STAND": 0
  },
  "214460358": {
    "TYP": "stop",
    "DIVA": 60200253,
    "NAME": "Döblinger Friedhof",
    "GEMEINDE": "Wien",
    "GEMEINDE_ID": 90000,
    "WGS84_LAT": 48.2391122706232,
    "WGS84_LON": 16.3293989517532,
    "STAND": 0
  },
  "214460359": {
    "TYP": "stop",
    "DIVA": 60200254,
    "NAME": "Döblinger Steg",
    "GEMEINDE": "Wien",
    "GEMEINDE_ID": 90000,
    "WGS84_LAT": 48.2407724790271,
    "WGS84_LON": 16.3653987274611,
    "STAND": 0
  },
  "214460360": {
    "TYP": "stop",
    "DIVA": 60200255,
    "NAME": "Dörmanngasse",
    "GEMEINDE": "Wien",
    "GEMEINDE_ID": 90000,
    "WGS84_LAT": 48.2224755346876,
    "WGS84_LON": 16.5340865637033,
    "STAND": 0
  },
  "214460361": {
    "TYP": "stop",
    "DIVA": 60200256,
    "NAME": "E-Werk",
    "GEMEINDE": "Wien",
    "GEMEINDE_ID": 90000,
    "WGS84_LAT": 48.1850152744196,
    "WGS84_LON": 16.430806722918,
    "STAND": 0
  },
  "214460362": {
    "TYP": "stop",
    "DIVA": 60200257,
    "NAME": "Eberstorferweg",
    "GEMEINDE": "Wien",
    "GEMEINDE_ID": 90000,
    "WGS84_LAT": 48.1547332387955,
    "WGS84_LON": 16.2800835421896,
    "STAND": 0
  },
  "214460363": {
    "TYP": "stop",
    "DIVA": 60200258,
    "NAME": "Edelsteingasse",
    "GEMEINDE": "Wien",
    "GEMEINDE_ID": 90000,
    "WGS84_LAT": 48.2622979811183,
    "WGS84_LON": 16.4256023061716,
    "STAND": 0
  },
  "214460364": {
    "TYP": "stop",
    "DIVA": 60200259,
    "NAME": "Edenstraße",
    "GEMEINDE": "Wien",
    "GEMEINDE_ID": 90000,
    "WGS84_LAT": 48.2148047709934,
    "WGS84_LON": 16.2463237680168,
    "STAND": 0
  },
  "214460365": {
    "TYP": "stop",
    "DIVA": 60200260,
    "NAME": "Edmund-Hawranek-Platz",
    "GEMEINDE": "Wien",
    "GEMEINDE_ID": 90000,
    "WGS84_LAT": 48.2914054629107,
    "WGS84_LON": 16.3865449816762,
    "STAND": 0
  },
  "214460366": {
    "TYP": "stop",
    "DIVA": 60200261,
    "NAME": "Eduard-Kittenberger-Gasse",
    "GEMEINDE": "Wien",
    "GEMEINDE_ID": 90000,
    "WGS84_LAT": 48.1368005930155,
    "WGS84_LON": 16.3034678688481,
    "STAND": 0
  },
  "214460367": {
    "TYP": "stop",
    "DIVA": 60200262,
    "NAME": "Albrechtskreithgasse",
    "GEMEINDE": "Wien",
    "GEMEINDE_ID": 90000,
    "WGS84_LAT": 48.2192814230982,
    "WGS84_LON": 16.3204658792192,
    "STAND": 0
  },
  "214460368": {
    "TYP": "stop",
    "DIVA": 60200263,
    "NAME": "Egon-Friedell-Gasse",
    "GEMEINDE": "Wien",
    "GEMEINDE_ID": 90000,
    "WGS84_LAT": 48.2738901951738,
    "WGS84_LON": 16.4364133539884,
    "STAND": 0
  },
  "214460369": {
    "TYP": "stop",
    "DIVA": 60200264,
    "NAME": "Eibesbrunnergasse",
    "GEMEINDE": "Wien",
    "GEMEINDE_ID": 90000,
    "WGS84_LAT": 48.1710337474682,
    "WGS84_LON": 16.3374612494802,
    "STAND": 0
  },
  "214460370": {
    "TYP": "stop",
    "DIVA": 60200265,
    "NAME": "Eibischweg",
    "GEMEINDE": "Wien",
    "GEMEINDE_ID": 90000,
    "WGS84_LAT": 48.2446384190344,
    "WGS84_LON": 16.4765865652571,
    "STAND": 0
  },
  "214460371": {
    "TYP": "stop",
    "DIVA": 60200266,
    "NAME": "Eichbachgasse",
    "GEMEINDE": "Wien",
    "GEMEINDE_ID": 90000,
    "WGS84_LAT": 48.2216314305184,
    "WGS84_LON": 16.2473750060835,
    "STAND": 0
  },
  "214460372": {
    "TYP": "stop",
    "DIVA": 60200267,
    "NAME": "Eichenstraße",
    "GEMEINDE": "Wien",
    "GEMEINDE_ID": 90000,
    "WGS84_LAT": 48.1803320080876,
    "WGS84_LON": 16.3496042580818,
    "STAND": 0
  },
  "214460373": {
    "TYP": "stop",
    "DIVA": 60200268,
    "NAME": "Einsiedeleigasse",
    "GEMEINDE": "Wien",
    "GEMEINDE_ID": 90000,
    "WGS84_LAT": 48.1833860781141,
    "WGS84_LON": 16.2643451159084,
    "STAND": 0
  },
  "214460374": {
    "TYP": "stop",
    "DIVA": 60200269,
    "NAME": "Einsiedlerplatz",
    "GEMEINDE": "Wien",
    "GEMEINDE_ID": 90000,
    "WGS84_LAT": 48.1852603300287,
    "WGS84_LON": 16.3494710651953,
    "STAND": 0
  },
  "214460375": {
    "TYP": "stop",
    "DIVA": 60200270,
    "NAME": "Luzegasse",
    "GEMEINDE": "Wien",
    "GEMEINDE_ID": 90000,
    "WGS84_LAT": 48.160823779371,
    "WGS84_LON": 16.4501590705331,
    "STAND": 0
  },
  "214460376": {
    "TYP": "stop",
    "DIVA": 60200271,
    "NAME": "Eipeldauer Straße",
    "GEMEINDE": "Wien",
    "GEMEINDE_ID": 90000,
    "WGS84_LAT": 48.2630446204419,
    "WGS84_LON": 16.4362574487483,
    "STAND": 0
  },
  "214460377": {
    "TYP": "stop",
    "DIVA": 60200272,
    "NAME": "Eisenstadtplatz",
    "GEMEINDE": "Wien",
    "GEMEINDE_ID": 90000,
    "WGS84_LAT": 48.1694767062294,
    "WGS84_LON": 16.3845700471402,
    "STAND": 0
  },
  "214460378": {
    "TYP": "stop",
    "DIVA": 60200273,
    "NAME": "Eisstoßgasse",
    "GEMEINDE": "Wien",
    "GEMEINDE_ID": 90000,
    "WGS84_LAT": 48.2179577022867,
    "WGS84_LON": 16.4409198190739,
    "STAND": 0
  },
  "214460379": {
    "TYP": "stop",
    "DIVA": 60200274,
    "NAME": "Elderschplatz",
    "GEMEINDE": "Wien",
    "GEMEINDE_ID": 90000,
    "WGS84_LAT": 48.2179442808363,
    "WGS84_LON": 16.4122564041577,
    "STAND": 0
  },
  "214460380": {
    "TYP": "stop",
    "DIVA": 60200275,
    "NAME": "Elsbeergasse",
    "GEMEINDE": "Wien",
    "GEMEINDE_ID": 90000,
    "WGS84_LAT": 48.2184620419885,
    "WGS84_LON": 16.2544051042966,
    "STAND": 0
  },
  "214460381": {
    "TYP": "stop",
    "DIVA": 60200276,
    "NAME": "Elterleinplatz",
    "GEMEINDE": "Wien",
    "GEMEINDE_ID": 90000,
    "WGS84_LAT": 48.2181762142935,
    "WGS84_LON": 16.3310569139099,
    "STAND": 0
  },
  "214460382": {
    "TYP": "stop",
    "DIVA": 60200277,
    "NAME": "Embelgasse",
    "GEMEINDE": "Wien",
    "GEMEINDE_ID": 90000,
    "WGS84_LAT": 48.1827148586735,
    "WGS84_LON": 16.3524154651872,
    "STAND": 0
  },
  "214460383": {
    "TYP": "stop",
    "DIVA": 60200278,
    "NAME": "Endemanngasse",
    "GEMEINDE": "Wien",
    "GEMEINDE_ID": 90000,
    "WGS84_LAT": 48.1530920451086,
    "WGS84_LON": 16.2904341474662,
    "STAND": 0
  },
  "214460384": {
    "TYP": "stop",
    "DIVA": 60200279,
    "NAME": "Engerthstraße/Innstraße",
    "GEMEINDE": "Wien",
    "GEMEINDE_ID": 90000,
    "WGS84_LAT": 48.2335138456236,
    "WGS84_LON": 16.3925859496397,
    "STAND": 0
  },
  "214460385": {
    "TYP": "stop",
    "DIVA": 60200280,
    "NAME": "Engerthstraße/Traisengasse",
    "GEMEINDE": "Wien",
    "GEMEINDE_ID": 90000,
    "WGS84_LAT": 48.2363303121719,
    "WGS84_LON": 16.3892235958223,
    "STAND": 0
  },
  "214460386": {
    "TYP": "stop",
    "DIVA": 60200281,
    "NAME": "Englisch-Feld-Gasse",
    "GEMEINDE": "Wien",
    "GEMEINDE_ID": 90000,
    "WGS84_LAT": 48.2099266880243,
    "WGS84_LON": 16.5360026099236,
    "STAND": 0
  },
  "214460387": {
    "TYP": "stop",
    "DIVA": 60200282,
    "NAME": "Donaumarina",
    "GEMEINDE": "Wien",
    "GEMEINDE_ID": 90000,
    "WGS84_LAT": 48.2061222788062,
    "WGS84_LON": 16.4309667013836,
    "STAND": 0
  },
  "214460388": {
    "TYP": "stop",
    "DIVA": 60200283,
    "NAME": "Erdbergstr./Schlachthausgasse",
    "GEMEINDE": "Wien",
    "GEMEINDE_ID": 90000,
    "WGS84_LAT": 48.1952931088609,
    "WGS84_LON": 16.4079723107234,
    "STAND": 0
  },
  "214460389": {
    "TYP": "stop",
    "DIVA": 60200284,
    "NAME": "Ottakringer Str./Erdbrustgasse",
    "GEMEINDE": "Wien",
    "GEMEINDE_ID": 90000,
    "WGS84_LAT": 48.2144042668232,
    "WGS84_LON": 16.3061635744997,
    "STAND": 0
  },
  "214460390": {
    "TYP": "stop",
    "DIVA": 60200285,
    "NAME": "Erlaaer Straße",
    "GEMEINDE": "Wien",
    "GEMEINDE_ID": 90000,
    "WGS84_LAT": 48.1414801002957,
    "WGS84_LON": 16.3165659664382,
    "STAND": 0
  },
  "214460391": {
    "TYP": "stop",
    "DIVA": 60200286,
    "NAME": "Erlachplatz",
    "GEMEINDE": "Wien",
    "GEMEINDE_ID": 90000,
    "WGS84_LAT": 48.1786192447553,
    "WGS84_LON": 16.36946457527,
    "STAND": 0
  },
  "214460392": {
    "TYP": "stop",
    "DIVA": 60200287,
    "NAME": "Erndtgasse",
    "GEMEINDE": "Wien",
    "GEMEINDE_ID": 90000,
    "WGS84_LAT": 48.2373220366074,
    "WGS84_LON": 16.3226546899414,
    "STAND": 0
  },
  "214460393": {
    "TYP": "stop",
    "DIVA": 60200288,
    "NAME": "Erzherzog-Karl-Straße",
    "GEMEINDE": "Wien",
    "GEMEINDE_ID": 90000,
    "WGS84_LAT": 48.2295650317689,
    "WGS84_LON": 16.4532325275246,
    "STAND": 0
  },
  "214460394": {
    "TYP": "stop",
    "DIVA": 60200289,
    "NAME": "Erdberg",
    "GEMEINDE": "Wien",
    "GEMEINDE_ID": 90000,
    "WGS84_LAT": 48.1911430940134,
    "WGS84_LON": 16.414301445905,
    "STAND": 0
  },
  "214460395": {
    "TYP": "stop",
    "DIVA": 60200290,
    "NAME": "Donaustadtbrücke",
    "GEMEINDE": "Wien",
    "GEMEINDE_ID": 90000,
    "WGS84_LAT": 48.2117890797184,
    "WGS84_LON": 16.4401268208798,
    "STAND": 0
  },
  "214460396": {
    "TYP": "stop",
    "DIVA": 60200291,
    "NAME": "Eselstiege",
    "GEMEINDE": "Wien",
    "GEMEINDE_ID": 90000,
    "WGS84_LAT": 48.2243890450837,
    "WGS84_LON": 16.2868176262675,
    "STAND": 0
  },
  "214460397": {
    "TYP": "stop",
    "DIVA": 60200292,
    "NAME": "Eslarngasse",
    "GEMEINDE": "Wien",
    "GEMEINDE_ID": 90000,
    "WGS84_LAT": 48.1967299536692,
    "WGS84_LON": 16.3958814818164,
    "STAND": 0
  },
  "214460398": {
    "TYP": "stop",
    "DIVA": 60200293,
    "NAME": "Esterhazygasse",
    "GEMEINDE": "Wien",
    "GEMEINDE_ID": 90000,
    "WGS84_LAT": 48.1952336502822,
    "WGS84_LON": 16.3510339742708,
    "STAND": 0
  },
  "214460399": {
    "TYP": "stop",
    "DIVA": 60200294,
    "NAME": "Etrichstraße",
    "GEMEINDE": "Wien",
    "GEMEINDE_ID": 90000,
    "WGS84_LAT": 48.1485003233293,
    "WGS84_LON": 16.4613263113231,
    "STAND": 0
  },
  "214460400": {
    "TYP": "stop",
    "DIVA": 60200295,
    "NAME": "Daumegasse",
    "GEMEINDE": "Wien",
    "GEMEINDE_ID": 90000,
    "WGS84_LAT": 48.1639856481982,
    "WGS84_LON": 16.3743886259298,
    "STAND": 0
  },
  "214460401": {
    "TYP": "stop",
    "DIVA": 60200296,
    "NAME": "Evangelischer Friedhof",
    "GEMEINDE": "Wien",
    "GEMEINDE_ID": 90000,
    "WGS84_LAT": 48.1798446276481,
    "WGS84_LON": 16.3602676122306,
    "STAND": 0
  },
  "214460402": {
    "TYP": "stop",
    "DIVA": 60200297,
    "NAME": "Eßling Schule",
    "GEMEINDE": "Wien",
    "GEMEINDE_ID": 90000,
    "WGS84_LAT": 48.2141341358386,
    "WGS84_LON": 16.5262095624378,
    "STAND": 0
  },
  "214460403": {
    "TYP": "stop",
    "DIVA": 60200298,
    "NAME": "Eßling Friedhof",
    "GEMEINDE": "Wien",
    "GEMEINDE_ID": 90000,
    "WGS84_LAT": 48.2162294640811,
    "WGS84_LON": 16.5316268496785,
    "STAND": 0
  },
  "214460404": {
    "TYP": "stop",
    "DIVA": 60200299,
    "NAME": "Aspernstraße",
    "GEMEINDE": "Wien",
    "GEMEINDE_ID": 90000,
    "WGS84_LAT": 48.2224454576238,
    "WGS84_LON": 16.4747628192784,
    "STAND": 0
  },
  "214460405": {
    "TYP": "stop",
    "DIVA": 60200300,
    "NAME": "Fasangasse",
    "GEMEINDE": "Wien",
    "GEMEINDE_ID": 90000,
    "WGS84_LAT": 48.1884073359728,
    "WGS84_LON": 16.3850317084352,
    "STAND": 0
  },
  "214460406": {
    "TYP": "stop",
    "DIVA": 60200301,
    "NAME": "Heiligenstadt, 12.-Februar-Pl.",
    "GEMEINDE": "Wien",
    "GEMEINDE_ID": 90000,
    "WGS84_LAT": 48.2489299302409,
    "WGS84_LON": 16.3627103589098,
    "STAND": 0
  },
  "214460407": {
    "TYP": "stop",
    "DIVA": 60200302,
    "NAME": "Diesterweggasse",
    "GEMEINDE": "Wien",
    "GEMEINDE_ID": 90000,
    "WGS84_LAT": 48.193755863391,
    "WGS84_LON": 16.306337024869,
    "STAND": 0
  },
  "214460408": {
    "TYP": "stop",
    "DIVA": 60200303,
    "NAME": "Wattmanngasse/Elisabethallee",
    "GEMEINDE": "Wien",
    "GEMEINDE_ID": 90000,
    "WGS84_LAT": 48.1764583330131,
    "WGS84_LON": 16.2949985160533,
    "STAND": 0
  },
  "214460409": {
    "TYP": "stop",
    "DIVA": 60200304,
    "NAME": "Felix-Dahn-Straße",
    "GEMEINDE": "Wien",
    "GEMEINDE_ID": 90000,
    "WGS84_LAT": 48.2400383173581,
    "WGS84_LON": 16.3259927464658,
    "STAND": 0
  },
  "214460410": {
    "TYP": "stop",
    "DIVA": 60200305,
    "NAME": "Felmayergasse",
    "GEMEINDE": "Wien",
    "GEMEINDE_ID": 90000,
    "WGS84_LAT": 48.2729674263776,
    "WGS84_LON": 16.4322892902841,
    "STAND": 0
  },
  "214460411": {
    "TYP": "stop",
    "DIVA": 60200306,
    "NAME": "Fendigasse",
    "GEMEINDE": "Wien",
    "GEMEINDE_ID": 90000,
    "WGS84_LAT": 48.1839374141751,
    "WGS84_LON": 16.3557913215128,
    "STAND": 0
  },
  "214460412": {
    "TYP": "stop",
    "DIVA": 60200307,
    "NAME": "Sonnleithnergasse",
    "GEMEINDE": "Wien",
    "GEMEINDE_ID": 90000,
    "WGS84_LAT": 48.1789264788618,
    "WGS84_LON": 16.3639650440153,
    "STAND": 0
  },
  "214460413": {
    "TYP": "stop",
    "DIVA": 60200308,
    "NAME": "Gspöttgraben",
    "GEMEINDE": "Wien",
    "GEMEINDE_ID": 90000,
    "WGS84_LAT": 48.2558826841719,
    "WGS84_LON": 16.3145561817955,
    "STAND": 0
  },
  "214460414": {
    "TYP": "stop",
    "DIVA": 60200309,
    "NAME": "Fernsprechamt Heiligenstadt",
    "GEMEINDE": "Wien",
    "GEMEINDE_ID": 90000,
    "WGS84_LAT": 48.2541284465087,
    "WGS84_LON": 16.3605718828887,
    "STAND": 0
  },
  "214460415": {
    "TYP": "stop",
    "DIVA": 60200310,
    "NAME": "Ferry-Dusika-Stadion",
    "GEMEINDE": "Wien",
    "GEMEINDE_ID": 90000,
    "WGS84_LAT": 48.2097499172516,
    "WGS84_LON": 16.4267889430568,
    "STAND": 0
  },
  "214460416": {
    "TYP": "stop",
    "DIVA": 60200311,
    "NAME": "Feuerwache Am Steinhof",
    "GEMEINDE": "Wien",
    "GEMEINDE_ID": 90000,
    "WGS84_LAT": 48.2153377901739,
    "WGS84_LON": 16.2780528070673,
    "STAND": 0
  },
  "214460417": {
    "TYP": "stop",
    "DIVA": 60200312,
    "NAME": "Feuerwache Grinzing",
    "GEMEINDE": "Wien",
    "GEMEINDE_ID": 90000,
    "WGS84_LAT": 48.2615323426923,
    "WGS84_LON": 16.3324937466959,
    "STAND": 0
  },
  "214460419": {
    "TYP": "stop",
    "DIVA": 60200314,
    "NAME": "Fickeysstraße",
    "GEMEINDE": "Wien",
    "GEMEINDE_ID": 90000,
    "WGS84_LAT": 48.1672413209403,
    "WGS84_LON": 16.423554728648,
    "STAND": 0
  },
  "214460420": {
    "TYP": "stop",
    "DIVA": 60200315,
    "NAME": "Filmteichstraße",
    "GEMEINDE": "Wien",
    "GEMEINDE_ID": 90000,
    "WGS84_LAT": 48.1526264346514,
    "WGS84_LON": 16.3968516966115,
    "STAND": 0
  },
  "214460421": {
    "TYP": "stop",
    "DIVA": 60200316,
    "NAME": "Finsterbuschstraße Nord",
    "GEMEINDE": "Wien",
    "GEMEINDE_ID": 90000,
    "WGS84_LAT": 48.1722572263266,
    "WGS84_LON": 16.4998100349314,
    "STAND": 0
  },
  "214460422": {
    "TYP": "stop",
    "DIVA": 60200317,
    "NAME": "Billgasse",
    "GEMEINDE": "Wien",
    "GEMEINDE_ID": 90000,
    "WGS84_LAT": 48.2244402600392,
    "WGS84_LON": 16.4833548532003,
    "STAND": 0
  },
  "214460423": {
    "TYP": "stop",
    "DIVA": 60200318,
    "NAME": "Löschniggasse",
    "GEMEINDE": "Wien",
    "GEMEINDE_ID": 90000,
    "WGS84_LAT": 48.2227438313379,
    "WGS84_LON": 16.4807660043947,
    "STAND": 0
  },
  "214460424": {
    "TYP": "stop",
    "DIVA": 60200319,
    "NAME": "1. Haidequerstraße Mitte",
    "GEMEINDE": "Wien",
    "GEMEINDE_ID": 90000,
    "WGS84_LAT": 48.1824715578814,
    "WGS84_LON": 16.429121075947,
    "STAND": 0
  },
  "214460425": {
    "TYP": "stop",
    "DIVA": 60200320,
    "NAME": "Dammhaufengasse",
    "GEMEINDE": "Wien",
    "GEMEINDE_ID": 90000,
    "WGS84_LAT": 48.1956485767737,
    "WGS84_LON": 16.447236714537,
    "STAND": 0
  },
  "214460426": {
    "TYP": "stop",
    "DIVA": 60200321,
    "NAME": "Pfarrgasse/Traviatagasse",
    "GEMEINDE": "Wien",
    "GEMEINDE_ID": 90000,
    "WGS84_LAT": 48.1426776628055,
    "WGS84_LON": 16.3431713723014,
    "STAND": 0
  },
  "214460427": {
    "TYP": "stop",
    "DIVA": 60200322,
    "NAME": "Zimbagasse",
    "GEMEINDE": "Wien",
    "GEMEINDE_ID": 90000,
    "WGS84_LAT": 48.2061559172456,
    "WGS84_LON": 16.219229275487,
    "STAND": 0
  },
  "214460428": {
    "TYP": "stop",
    "DIVA": 60200323,
    "NAME": "Auhof",
    "GEMEINDE": "Wien",
    "GEMEINDE_ID": 90000,
    "WGS84_LAT": 48.2075668059392,
    "WGS84_LON": 16.2182035398719,
    "STAND": 0
  },
  "214460429": {
    "TYP": "stop",
    "DIVA": 60200324,
    "NAME": "1. Haidequerstraße Süd",
    "GEMEINDE": "Wien",
    "GEMEINDE_ID": 90000,
    "WGS84_LAT": 48.1809165155744,
    "WGS84_LON": 16.4281366109702,
    "STAND": 0
  },
  "214460430": {
    "TYP": "stop",
    "DIVA": 60200325,
    "NAME": "Giefinggasse",
    "GEMEINDE": "Wien",
    "GEMEINDE_ID": 90000,
    "WGS84_LAT": 48.2683051536327,
    "WGS84_LON": 16.4259091360745,
    "STAND": 0
  },
  "214460431": {
    "TYP": "stop",
    "DIVA": 60200326,
    "NAME": "Firma Perfekta",
    "GEMEINDE": "Wien",
    "GEMEINDE_ID": 90000,
    "WGS84_LAT": 48.1365411498398,
    "WGS84_LON": 16.3086810860136,
    "STAND": 0
  },
  "214460432": {
    "TYP": "stop",
    "DIVA": 60200327,
    "NAME": "Rodaun Wohnheim",
    "GEMEINDE": "Wien",
    "GEMEINDE_ID": 90000,
    "WGS84_LAT": 48.1272583094933,
    "WGS84_LON": 16.2289729363874,
    "STAND": 0
  },
  "214460433": {
    "TYP": "stop",
    "DIVA": 60200328,
    "NAME": "Heinrich-von-Buol-Gasse",
    "GEMEINDE": "Wien",
    "GEMEINDE_ID": 90000,
    "WGS84_LAT": 48.2649508785994,
    "WGS84_LON": 16.4257012215821,
    "STAND": 0
  },
  "214460434": {
    "TYP": "stop",
    "DIVA": 60200329,
    "NAME": "Fischergrund",
    "GEMEINDE": "Wien",
    "GEMEINDE_ID": 90000,
    "WGS84_LAT": 48.2155205720138,
    "WGS84_LON": 16.4408879331863,
    "STAND": 0
  },
  "214460435": {
    "TYP": "stop",
    "DIVA": 60200330,
    "NAME": "Fichtnergasse",
    "GEMEINDE": "Wien",
    "GEMEINDE_ID": 90000,
    "WGS84_LAT": 48.1871219911934,
    "WGS84_LON": 16.2888841748869,
    "STAND": 0
  },
  "214460436": {
    "TYP": "stop",
    "DIVA": 60200331,
    "NAME": "Florian-Geyer-Gasse",
    "GEMEINDE": "Wien",
    "GEMEINDE_ID": 90000,
    "WGS84_LAT": 48.1569367834056,
    "WGS84_LON": 16.391802956158,
    "STAND": 0
  },
  "214460437": {
    "TYP": "stop",
    "DIVA": 60200332,
    "NAME": "Florian-Hedorfer-Straße",
    "GEMEINDE": "Wien",
    "GEMEINDE_ID": 90000,
    "WGS84_LAT": 48.1656164152762,
    "WGS84_LON": 16.43125497562,
    "STAND": 0
  },
  "214460438": {
    "TYP": "stop",
    "DIVA": 60200333,
    "NAME": "Florianigasse",
    "GEMEINDE": "Wien",
    "GEMEINDE_ID": 90000,
    "WGS84_LAT": 48.2127889975179,
    "WGS84_LON": 16.3456837238539,
    "STAND": 0
  },
  "214460439": {
    "TYP": "stop",
    "DIVA": 60200334,
    "NAME": "Floridsdorf",
    "GEMEINDE": "Wien",
    "GEMEINDE_ID": 90000,
    "WGS84_LAT": 48.2567930958351,
    "WGS84_LON": 16.4003013347368,
    "STAND": 0
  },
  "214460440": {
    "TYP": "stop",
    "DIVA": 60200335,
    "NAME": "Joseph-Lister-Gasse",
    "GEMEINDE": "Wien",
    "GEMEINDE_ID": 90000,
    "WGS84_LAT": 48.1751423756475,
    "WGS84_LON": 16.2695332517739,
    "STAND": 0
  },
  "214460441": {
    "TYP": "stop",
    "DIVA": 60200336,
    "NAME": "Flotowgasse",
    "GEMEINDE": "Wien",
    "GEMEINDE_ID": 90000,
    "WGS84_LAT": 48.2405873160454,
    "WGS84_LON": 16.3388228063172,
    "STAND": 0
  },
  "214460442": {
    "TYP": "stop",
    "DIVA": 60200337,
    "NAME": "Flugfeldstraße",
    "GEMEINDE": "Wien",
    "GEMEINDE_ID": 90000,
    "WGS84_LAT": 48.2156610926167,
    "WGS84_LON": 16.504335114285,
    "STAND": 0
  },
  "214460443": {
    "TYP": "stop",
    "DIVA": 60200338,
    "NAME": "Flötzersteig",
    "GEMEINDE": "Wien",
    "GEMEINDE_ID": 90000,
    "WGS84_LAT": 48.2038358683923,
    "WGS84_LON": 16.2788595554754,
    "STAND": 0
  },
  "214460444": {
    "TYP": "stop",
    "DIVA": 60200339,
    "NAME": "Flötzersteigbrücke",
    "GEMEINDE": "Wien",
    "GEMEINDE_ID": 90000,
    "WGS84_LAT": 48.2071866668199,
    "WGS84_LON": 16.2907762147493,
    "STAND": 0
  },
  "214460445": {
    "TYP": "stop",
    "DIVA": 60200340,
    "NAME": "Hadersdorf Forstgarten",
    "GEMEINDE": "Wien",
    "GEMEINDE_ID": 90000,
    "WGS84_LAT": 48.2181245254805,
    "WGS84_LON": 16.2178966969943,
    "STAND": 0
  },
  "214460446": {
    "TYP": "stop",
    "DIVA": 60200341,
    "NAME": "Forsthausgasse",
    "GEMEINDE": "Wien",
    "GEMEINDE_ID": 90000,
    "WGS84_LAT": 48.245239241564,
    "WGS84_LON": 16.3749877483106,
    "STAND": 0
  },
  "214460447": {
    "TYP": "stop",
    "DIVA": 60200342,
    "NAME": "Frachtenbahnhof Lobau Hafen",
    "GEMEINDE": "Wien",
    "GEMEINDE_ID": 90000,
    "WGS84_LAT": 48.1864240753325,
    "WGS84_LON": 16.4776378204615,
    "STAND": 0
  },
  "214460448": {
    "TYP": "stop",
    "DIVA": 60200343,
    "NAME": "Franz-Asenbauer-Gasse",
    "GEMEINDE": "Wien",
    "GEMEINDE_ID": 90000,
    "WGS84_LAT": 48.1547195851533,
    "WGS84_LON": 16.2712263014732,
    "STAND": 0
  },
  "214460449": {
    "TYP": "stop",
    "DIVA": 60200344,
    "NAME": "Franz-Josef-Spital",
    "GEMEINDE": "Wien",
    "GEMEINDE_ID": 90000,
    "WGS84_LAT": 48.1749181422136,
    "WGS84_LON": 16.3488902164128,
    "STAND": 0
  },
  "214460450": {
    "TYP": "stop",
    "DIVA": 60200345,
    "NAME": "Franz-Josefs-Bahnhof",
    "GEMEINDE": "Wien",
    "GEMEINDE_ID": 90000,
    "WGS84_LAT": 48.2259256433794,
    "WGS84_LON": 16.3615948009271,
    "STAND": 0
  },
  "214460451": {
    "TYP": "stop",
    "DIVA": 60200346,
    "NAME": "Krankenanstalt Rudolfstiftung",
    "GEMEINDE": "Wien",
    "GEMEINDE_ID": 90000,
    "WGS84_LAT": 48.1966329107889,
    "WGS84_LON": 16.3921418779214,
    "STAND": 0
  },
  "214460452": {
    "TYP": "stop",
    "DIVA": 60200347,
    "NAME": "Franz-Pletersky-Weg",
    "GEMEINDE": "Wien",
    "GEMEINDE_ID": 90000,
    "WGS84_LAT": 48.2132719777141,
    "WGS84_LON": 16.4506253210029,
    "STAND": 0
  },
  "214460453": {
    "TYP": "stop",
    "DIVA": 60200348,
    "NAME": "Franzensbrücke",
    "GEMEINDE": "Wien",
    "GEMEINDE_ID": 90000,
    "WGS84_LAT": 48.2137921839134,
    "WGS84_LON": 16.391730000783,
    "STAND": 0
  },
  "214460454": {
    "TYP": "stop",
    "DIVA": 60200349,
    "NAME": "Franzosenweg",
    "GEMEINDE": "Wien",
    "GEMEINDE_ID": 90000,
    "WGS84_LAT": 48.1401502758275,
    "WGS84_LON": 16.3827956899141,
    "STAND": 0
  },
  "214460455": {
    "TYP": "stop",
    "DIVA": 60200350,
    "NAME": "Forchheimergasse",
    "GEMEINDE": "Wien",
    "GEMEINDE_ID": 90000,
    "WGS84_LAT": 48.1409293291116,
    "WGS84_LON": 16.3064079190671,
    "STAND": 0
  },
  "214460456": {
    "TYP": "stop",
    "DIVA": 60200351,
    "NAME": "Freesienweg",
    "GEMEINDE": "Wien",
    "GEMEINDE_ID": 90000,
    "WGS84_LAT": 48.2044955958403,
    "WGS84_LON": 16.2426286344682,
    "STAND": 0
  },
  "214460457": {
    "TYP": "stop",
    "DIVA": 60200352,
    "NAME": "Freiheitsplatz",
    "GEMEINDE": "Wien",
    "GEMEINDE_ID": 90000,
    "WGS84_LAT": 48.3014338781399,
    "WGS84_LON": 16.4162489148335,
    "STAND": 0
  },
  "214460458": {
    "TYP": "stop",
    "DIVA": 60200353,
    "NAME": "Freihofsiedlung",
    "GEMEINDE": "Wien",
    "GEMEINDE_ID": 90000,
    "WGS84_LAT": 48.2425271768776,
    "WGS84_LON": 16.4502732275717,
    "STAND": 0
  },
  "214460459": {
    "TYP": "stop",
    "DIVA": 60200354,
    "NAME": "Kraftwerk Freudenau",
    "GEMEINDE": "Wien",
    "GEMEINDE_ID": 90000,
    "WGS84_LAT": 48.1744252023719,
    "WGS84_LON": 16.479137600397,
    "STAND": 0
  },
  "214460460": {
    "TYP": "stop",
    "DIVA": 60200355,
    "NAME": "Freyenthurmgasse",
    "GEMEINDE": "Wien",
    "GEMEINDE_ID": 90000,
    "WGS84_LAT": 48.2054415392226,
    "WGS84_LON": 16.2567936743759,
    "STAND": 0
  },
  "214460461": {
    "TYP": "stop",
    "DIVA": 60200356,
    "NAME": "Freytaggasse",
    "GEMEINDE": "Wien",
    "GEMEINDE_ID": 90000,
    "WGS84_LAT": 48.2562249700204,
    "WGS84_LON": 16.4030344311548,
    "STAND": 0
  },
  "214460462": {
    "TYP": "stop",
    "DIVA": 60200357,
    "NAME": "Friedensbrücke",
    "GEMEINDE": "Wien",
    "GEMEINDE_ID": 90000,
    "WGS84_LAT": 48.227031031543,
    "WGS84_LON": 16.3648794355547,
    "STAND": 0
  },
  "214460463": {
    "TYP": "stop",
    "DIVA": 60200358,
    "NAME": "Baumgarten",
    "GEMEINDE": "Wien",
    "GEMEINDE_ID": 90000,
    "WGS84_LAT": 48.1990655500473,
    "WGS84_LON": 16.2714931525076,
    "STAND": 0
  },
  "214460464": {
    "TYP": "stop",
    "DIVA": 60200359,
    "NAME": "Friedensgasse",
    "GEMEINDE": "Wien",
    "GEMEINDE_ID": 90000,
    "WGS84_LAT": 48.2032554293941,
    "WGS84_LON": 16.4024676563252,
    "STAND": 0
  },
  "214460465": {
    "TYP": "stop",
    "DIVA": 60200360,
    "NAME": "Mariabrunn Kirche",
    "GEMEINDE": "Wien",
    "GEMEINDE_ID": 90000,
    "WGS84_LAT": 48.2077324834779,
    "WGS84_LON": 16.2314152978505,
    "STAND": 0
  },
  "214460466": {
    "TYP": "stop",
    "DIVA": 60200361,
    "NAME": "Friedjunggasse",
    "GEMEINDE": "Wien",
    "GEMEINDE_ID": 90000,
    "WGS84_LAT": 48.1652211124576,
    "WGS84_LON": 16.419128485421,
    "STAND": 0
  },
  "214460467": {
    "TYP": "stop",
    "DIVA": 60200362,
    "NAME": "Obkirchergasse",
    "GEMEINDE": "Wien",
    "GEMEINDE_ID": 90000,
    "WGS84_LAT": 48.2457312811781,
    "WGS84_LON": 16.3421352881588,
    "STAND": 0
  },
  "214460468": {
    "TYP": "stop",
    "DIVA": 60200363,
    "NAME": "Friedrich-Engels-Platz",
    "GEMEINDE": "Wien",
    "GEMEINDE_ID": 90000,
    "WGS84_LAT": 48.2442752741901,
    "WGS84_LON": 16.3797263087607,
    "STAND": 0
  },
  "214460469": {
    "TYP": "stop",
    "DIVA": 60200364,
    "NAME": "Friedstraße",
    "GEMEINDE": "Wien",
    "GEMEINDE_ID": 90000,
    "WGS84_LAT": 48.2454412359403,
    "WGS84_LON": 16.4046360697309,
    "STAND": 0
  },
  "214460470": {
    "TYP": "stop",
    "DIVA": 60200365,
    "NAME": "Frödenplatz",
    "GEMEINDE": "Wien",
    "GEMEINDE_ID": 90000,
    "WGS84_LAT": 48.1553022830818,
    "WGS84_LON": 16.3586566691101,
    "STAND": 0
  },
  "214460471": {
    "TYP": "stop",
    "DIVA": 60200366,
    "NAME": "Frömmlgasse",
    "GEMEINDE": "Wien",
    "GEMEINDE_ID": 90000,
    "WGS84_LAT": 48.25624878565,
    "WGS84_LON": 16.3921261617734,
    "STAND": 0
  },
  "214460472": {
    "TYP": "stop",
    "DIVA": 60200367,
    "NAME": "Fröschelgasse",
    "GEMEINDE": "Wien",
    "GEMEINDE_ID": 90000,
    "WGS84_LAT": 48.2519985438406,
    "WGS84_LON": 16.3200519114992,
    "STAND": 0
  },
  "214460473": {
    "TYP": "stop",
    "DIVA": 60200368,
    "NAME": "Längenfeldgasse/Flurschützstr.",
    "GEMEINDE": "Wien",
    "GEMEINDE_ID": 90000,
    "WGS84_LAT": 48.1793524641633,
    "WGS84_LON": 16.3400701600147,
    "STAND": 0
  },
  "214460474": {
    "TYP": "stop",
    "DIVA": 60200369,
    "NAME": "Fultonstraße",
    "GEMEINDE": "Wien",
    "GEMEINDE_ID": 90000,
    "WGS84_LAT": 48.2532143247375,
    "WGS84_LON": 16.4140458886203,
    "STAND": 0
  },
  "214460475": {
    "TYP": "stop",
    "DIVA": 60200370,
    "NAME": "Funkengerngasse",
    "GEMEINDE": "Wien",
    "GEMEINDE_ID": 90000,
    "WGS84_LAT": 48.2153805037468,
    "WGS84_LON": 16.2934333291871,
    "STAND": 0
  },
  "214460476": {
    "TYP": "stop",
    "DIVA": 60200371,
    "NAME": "Seegasse",
    "GEMEINDE": "Wien",
    "GEMEINDE_ID": 90000,
    "WGS84_LAT": 48.223065852404,
    "WGS84_LON": 16.361391507508,
    "STAND": 0
  },
  "214460477": {
    "TYP": "stop",
    "DIVA": 60200372,
    "NAME": "Ottakringer Friedhof",
    "GEMEINDE": "Wien",
    "GEMEINDE_ID": 90000,
    "WGS84_LAT": 48.2140792075348,
    "WGS84_LON": 16.3015214525762,
    "STAND": 0
  },
  "214460478": {
    "TYP": "stop",
    "DIVA": 60200373,
    "NAME": "Kaltenleutgebner Str. 10/63",
    "GEMEINDE": "Wien",
    "GEMEINDE_ID": 90000,
    "WGS84_LAT": 48.13182380801,
    "WGS84_LON": 16.2463207783429,
    "STAND": 0
  },
  "214460479": {
    "TYP": "stop",
    "DIVA": 60200374,
    "NAME": "Altes Gasthaus Maut",
    "GEMEINDE": "Wien",
    "GEMEINDE_ID": 90000,
    "WGS84_LAT": 48.129087534134,
    "WGS84_LON": 16.2328783552932,
    "STAND": 0
  },
  "214460480": {
    "TYP": "stop",
    "DIVA": 60200375,
    "NAME": "Gasthaus Zum Friedhof",
    "GEMEINDE": "Wien",
    "GEMEINDE_ID": 90000,
    "WGS84_LAT": 48.2964567352588,
    "WGS84_LON": 16.4330881387987,
    "STAND": 0
  },
  "214460481": {
    "TYP": "stop",
    "DIVA": 60200376,
    "NAME": "Gatterburggasse",
    "GEMEINDE": "Wien",
    "GEMEINDE_ID": 90000,
    "WGS84_LAT": 48.2392016532224,
    "WGS84_LON": 16.3492292941842,
    "STAND": 0
  },
  "214460482": {
    "TYP": "stop",
    "DIVA": 60200377,
    "NAME": "Gattergasse",
    "GEMEINDE": "Wien",
    "GEMEINDE_ID": 90000,
    "WGS84_LAT": 48.1605151004917,
    "WGS84_LON": 16.4225485946184,
    "STAND": 0
  },
  "214460483": {
    "TYP": "stop",
    "DIVA": 60200378,
    "NAME": "Gatterhölzl",
    "GEMEINDE": "Wien",
    "GEMEINDE_ID": 90000,
    "WGS84_LAT": 48.17587981702,
    "WGS84_LON": 16.3187580206486,
    "STAND": 0
  },
  "214460484": {
    "TYP": "stop",
    "DIVA": 60200379,
    "NAME": "Gaudenzdorfer Gürtel",
    "GEMEINDE": "Wien",
    "GEMEINDE_ID": 90000,
    "WGS84_LAT": 48.1872394088813,
    "WGS84_LON": 16.343096777382,
    "STAND": 0
  },
  "214460485": {
    "TYP": "stop",
    "DIVA": 60200380,
    "NAME": "Gaußplatz",
    "GEMEINDE": "Wien",
    "GEMEINDE_ID": 90000,
    "WGS84_LAT": 48.226283227999,
    "WGS84_LON": 16.3699127478358,
    "STAND": 0
  },
  "214460486": {
    "TYP": "stop",
    "DIVA": 60200381,
    "NAME": "Gaßmannstraße",
    "GEMEINDE": "Wien",
    "GEMEINDE_ID": 90000,
    "WGS84_LAT": 48.1747726979405,
    "WGS84_LON": 16.3133397825823,
    "STAND": 0
  },
  "214460487": {
    "TYP": "stop",
    "DIVA": 60200382,
    "NAME": "Geiereckstraße",
    "GEMEINDE": "Wien",
    "GEMEINDE_ID": 90000,
    "WGS84_LAT": 48.1750364392829,
    "WGS84_LON": 16.3992177125686,
    "STAND": 0
  },
  "214460488": {
    "TYP": "stop",
    "DIVA": 60200383,
    "NAME": "Geistingergasse",
    "GEMEINDE": "Wien",
    "GEMEINDE_ID": 90000,
    "WGS84_LAT": 48.2453686304279,
    "WGS84_LON": 16.3627489061211,
    "STAND": 0
  },
  "214460489": {
    "TYP": "stop",
    "DIVA": 60200384,
    "NAME": "Gellertplatz",
    "GEMEINDE": "Wien",
    "GEMEINDE_ID": 90000,
    "WGS84_LAT": 48.1750083687876,
    "WGS84_LON": 16.3826390690774,
    "STAND": 0
  },
  "214460490": {
    "TYP": "stop",
    "DIVA": 60200385,
    "NAME": "Gemeindeberggasse",
    "GEMEINDE": "Wien",
    "GEMEINDE_ID": 90000,
    "WGS84_LAT": 48.1811830488696,
    "WGS84_LON": 16.2648591917787,
    "STAND": 0
  },
  "214460491": {
    "TYP": "stop",
    "DIVA": 60200386,
    "NAME": "General-Motors-Werk",
    "GEMEINDE": "Wien",
    "GEMEINDE_ID": 90000,
    "WGS84_LAT": 48.2177133002894,
    "WGS84_LON": 16.5031307126095,
    "STAND": 0
  },
  "214460492": {
    "TYP": "stop",
    "DIVA": 60200387,
    "NAME": "Genochplatz",
    "GEMEINDE": "Wien",
    "GEMEINDE_ID": 90000,
    "WGS84_LAT": 48.2290498582131,
    "WGS84_LON": 16.4557214340545,
    "STAND": 0
  },
  "214460493": {
    "TYP": "stop",
    "DIVA": 60200388,
    "NAME": "Brünner Str./Hanreitergasse",
    "GEMEINDE": "Wien",
    "GEMEINDE_ID": 90000,
    "WGS84_LAT": 48.2841423777337,
    "WGS84_LON": 16.4130149677753,
    "STAND": 0
  },
  "214460494": {
    "TYP": "stop",
    "DIVA": 60200389,
    "NAME": "Gerhardusgasse",
    "GEMEINDE": "Wien",
    "GEMEINDE_ID": 90000,
    "WGS84_LAT": 48.231698143301,
    "WGS84_LON": 16.3662550302962,
    "STAND": 0
  },
  "214460495": {
    "TYP": "stop",
    "DIVA": 60200390,
    "NAME": "Geringergasse",
    "GEMEINDE": "Wien",
    "GEMEINDE_ID": 90000,
    "WGS84_LAT": 48.168003893777,
    "WGS84_LON": 16.4259624861951,
    "STAND": 0
  },
  "214460496": {
    "TYP": "stop",
    "DIVA": 60200391,
    "NAME": "Gernotgasse",
    "GEMEINDE": "Wien",
    "GEMEINDE_ID": 90000,
    "WGS84_LAT": 48.2197433978715,
    "WGS84_LON": 16.5330398050822,
    "STAND": 0
  },
  "214460497": {
    "TYP": "stop",
    "DIVA": 60200392,
    "NAME": "Geroldgasse",
    "GEMEINDE": "Wien",
    "GEMEINDE_ID": 90000,
    "WGS84_LAT": 48.2390644893369,
    "WGS84_LON": 16.2835859798437,
    "STAND": 0
  },
  "214460498": {
    "TYP": "stop",
    "DIVA": 60200393,
    "NAME": "Gersthof",
    "GEMEINDE": "Wien",
    "GEMEINDE_ID": 90000,
    "WGS84_LAT": 48.2314050830626,
    "WGS84_LON": 16.3288346209239,
    "STAND": 0
  },
  "214460499": {
    "TYP": "stop",
    "DIVA": 60200394,
    "NAME": "Ehrenpreisgasse",
    "GEMEINDE": "Wien",
    "GEMEINDE_ID": 90000,
    "WGS84_LAT": 48.2180723868195,
    "WGS84_LON": 16.4611459602165,
    "STAND": 0
  },
  "214460500": {
    "TYP": "stop",
    "DIVA": 60200395,
    "NAME": "Gersthofer Friedhof",
    "GEMEINDE": "Wien",
    "GEMEINDE_ID": 90000,
    "WGS84_LAT": 48.229973670045,
    "WGS84_LON": 16.3161957512738,
    "STAND": 0
  },
  "214460501": {
    "TYP": "stop",
    "DIVA": 60200396,
    "NAME": "Getreidemarkt",
    "GEMEINDE": "Wien",
    "GEMEINDE_ID": 90000,
    "WGS84_LAT": 48.2018145414104,
    "WGS84_LON": 16.3629281252388,
    "STAND": 0
  },
  "214460502": {
    "TYP": "stop",
    "DIVA": 60200397,
    "NAME": "Geusaugasse",
    "GEMEINDE": "Wien",
    "GEMEINDE_ID": 90000,
    "WGS84_LAT": 48.203853410686,
    "WGS84_LON": 16.3942888237309,
    "STAND": 0
  },
  "214460503": {
    "TYP": "stop",
    "DIVA": 60200398,
    "NAME": "Auhof Scheringgasse",
    "GEMEINDE": "Wien",
    "GEMEINDE_ID": 90000,
    "WGS84_LAT": 48.2073082722517,
    "WGS84_LON": 16.2204375314694,
    "STAND": 0
  },
  "214460504": {
    "TYP": "stop",
    "DIVA": 60200399,
    "NAME": "Zippererstraße",
    "GEMEINDE": "Wien",
    "GEMEINDE_ID": 90000,
    "WGS84_LAT": 48.179498943668,
    "WGS84_LON": 16.4111237150936,
    "STAND": 0
  },
  "214460505": {
    "TYP": "stop",
    "DIVA": 60200400,
    "NAME": "Heinrich-Drimmel-Platz",
    "GEMEINDE": "Wien",
    "GEMEINDE_ID": 90000,
    "WGS84_LAT": 48.1880809480842,
    "WGS84_LON": 16.3908683370721,
    "STAND": 0
  },
  "214460506": {
    "TYP": "stop",
    "DIVA": 60200401,
    "NAME": "Ghelengasse",
    "GEMEINDE": "Wien",
    "GEMEINDE_ID": 90000,
    "WGS84_LAT": 48.1802982669522,
    "WGS84_LON": 16.2595084589462,
    "STAND": 0
  },
  "214460507": {
    "TYP": "stop",
    "DIVA": 60200402,
    "NAME": "Gitlbauergasse",
    "GEMEINDE": "Wien",
    "GEMEINDE_ID": 90000,
    "WGS84_LAT": 48.2702733137564,
    "WGS84_LON": 16.4479506870791,
    "STAND": 0
  },
  "214460508": {
    "TYP": "stop",
    "DIVA": 60200403,
    "NAME": "Gladiolenweg",
    "GEMEINDE": "Wien",
    "GEMEINDE_ID": 90000,
    "WGS84_LAT": 48.2375487553197,
    "WGS84_LON": 16.4790576525816,
    "STAND": 0
  },
  "214460509": {
    "TYP": "stop",
    "DIVA": 60200404,
    "NAME": "Glanzing",
    "GEMEINDE": "Wien",
    "GEMEINDE_ID": 90000,
    "WGS84_LAT": 48.2432484005433,
    "WGS84_LON": 16.3215491161882,
    "STAND": 0
  },
  "214460510": {
    "TYP": "stop",
    "DIVA": 60200405,
    "NAME": "Glatzgasse",
    "GEMEINDE": "Wien",
    "GEMEINDE_ID": 90000,
    "WGS84_LAT": 48.2333465789855,
    "WGS84_LON": 16.3531718803691,
    "STAND": 0
  },
  "214460511": {
    "TYP": "stop",
    "DIVA": 60200406,
    "NAME": "Glawatschweg",
    "GEMEINDE": "Wien",
    "GEMEINDE_ID": 90000,
    "WGS84_LAT": 48.1636739540526,
    "WGS84_LON": 16.2661874024241,
    "STAND": 0
  },
  "214460512": {
    "TYP": "stop",
    "DIVA": 60200407,
    "NAME": "Glockengasse",
    "GEMEINDE": "Wien",
    "GEMEINDE_ID": 90000,
    "WGS84_LAT": 48.2178345330391,
    "WGS84_LON": 16.3817358565497,
    "STAND": 0
  },
  "214460513": {
    "TYP": "stop",
    "DIVA": 60200408,
    "NAME": "Gloriettegasse",
    "GEMEINDE": "Wien",
    "GEMEINDE_ID": 90000,
    "WGS84_LAT": 48.1829953483652,
    "WGS84_LON": 16.2920616573383,
    "STAND": 0
  },
  "214460514": {
    "TYP": "stop",
    "DIVA": 60200409,
    "NAME": "Glossystraße",
    "GEMEINDE": "Wien",
    "GEMEINDE_ID": 90000,
    "WGS84_LAT": 48.2124399810633,
    "WGS84_LON": 16.2359536754724,
    "STAND": 0
  },
  "214460515": {
    "TYP": "stop",
    "DIVA": 60200410,
    "NAME": "Gobergasse",
    "GEMEINDE": "Wien",
    "GEMEINDE_ID": 90000,
    "WGS84_LAT": 48.1792068680594,
    "WGS84_LON": 16.2687346234077,
    "STAND": 0
  },
  "214460516": {
    "TYP": "stop",
    "DIVA": 60200411,
    "NAME": "Goethehof",
    "GEMEINDE": "Wien",
    "GEMEINDE_ID": 90000,
    "WGS84_LAT": 48.2291988257154,
    "WGS84_LON": 16.4193799424005,
    "STAND": 0
  },
  "214460517": {
    "TYP": "stop",
    "DIVA": 60200412,
    "NAME": "Gogolgasse",
    "GEMEINDE": "Wien",
    "GEMEINDE_ID": 90000,
    "WGS84_LAT": 48.1827901422617,
    "WGS84_LON": 16.2758572523424,
    "STAND": 0
  },
  "214460518": {
    "TYP": "stop",
    "DIVA": 60200413,
    "NAME": "Goldhammergasse",
    "GEMEINDE": "Wien",
    "GEMEINDE_ID": 90000,
    "WGS84_LAT": 48.1443048912375,
    "WGS84_LON": 16.3227596855182,
    "STAND": 0
  },
  "214460519": {
    "TYP": "stop",
    "DIVA": 60200414,
    "NAME": "Gotthelfgasse",
    "GEMEINDE": "Wien",
    "GEMEINDE_ID": 90000,
    "WGS84_LAT": 48.2272772849941,
    "WGS84_LON": 16.4726896551917,
    "STAND": 0
  },
  "214460520": {
    "TYP": "stop",
    "DIVA": 60200415,
    "NAME": "Graben/Petersplatz",
    "GEMEINDE": "Wien",
    "GEMEINDE_ID": 90000,
    "WGS84_LAT": 48.2091602671365,
    "WGS84_LON": 16.3695651177101,
    "STAND": 0
  },
  "214460521": {
    "TYP": "stop",
    "DIVA": 60200416,
    "NAME": "Graf-Seilern-Gasse",
    "GEMEINDE": "Wien",
    "GEMEINDE_ID": 90000,
    "WGS84_LAT": 48.1705626957831,
    "WGS84_LON": 16.3081385931017,
    "STAND": 0
  },
  "214460522": {
    "TYP": "stop",
    "DIVA": 60200417,
    "NAME": "Grasbergergasse",
    "GEMEINDE": "Wien",
    "GEMEINDE_ID": 90000,
    "WGS84_LAT": 48.1864390908529,
    "WGS84_LON": 16.4006707196364,
    "STAND": 0
  },
  "214460523": {
    "TYP": "stop",
    "DIVA": 60200418,
    "NAME": "Grasgasse",
    "GEMEINDE": "Wien",
    "GEMEINDE_ID": 90000,
    "WGS84_LAT": 48.2299537800998,
    "WGS84_LON": 16.2822492935644,
    "STAND": 0
  },
  "214460524": {
    "TYP": "stop",
    "DIVA": 60200419,
    "NAME": "Gredlerstraße",
    "GEMEINDE": "Wien",
    "GEMEINDE_ID": 90000,
    "WGS84_LAT": 48.2140041492887,
    "WGS84_LON": 16.379875533127,
    "STAND": 0
  },
  "214460525": {
    "TYP": "stop",
    "DIVA": 60200420,
    "NAME": "Gregor-Mendel-Straße",
    "GEMEINDE": "Wien",
    "GEMEINDE_ID": 90000,
    "WGS84_LAT": 48.233860441586,
    "WGS84_LON": 16.3377590216468,
    "STAND": 0
  },
  "214460526": {
    "TYP": "stop",
    "DIVA": 60200421,
    "NAME": "Gregorygasse",
    "GEMEINDE": "Wien",
    "GEMEINDE_ID": 90000,
    "WGS84_LAT": 48.1572069582224,
    "WGS84_LON": 16.3053904348033,
    "STAND": 0
  },
  "214460527": {
    "TYP": "stop",
    "DIVA": 60200422,
    "NAME": "Eßling, Schippanisiedlung",
    "GEMEINDE": "Wien",
    "GEMEINDE_ID": 90000,
    "WGS84_LAT": 48.2193728227033,
    "WGS84_LON": 16.5443022032005,
    "STAND": 0
  },
  "214460528": {
    "TYP": "stop",
    "DIVA": 60200423,
    "NAME": "Greutberggasse",
    "GEMEINDE": "Wien",
    "GEMEINDE_ID": 90000,
    "WGS84_LAT": 48.2278773312611,
    "WGS84_LON": 16.2051549159531,
    "STAND": 0
  },
  "214460529": {
    "TYP": "stop",
    "DIVA": 60200424,
    "NAME": "Griegstraße",
    "GEMEINDE": "Wien",
    "GEMEINDE_ID": 90000,
    "WGS84_LAT": 48.2492141070592,
    "WGS84_LON": 16.3753139240549,
    "STAND": 0
  },
  "214460530": {
    "TYP": "stop",
    "DIVA": 60200425,
    "NAME": "Enkplatz",
    "GEMEINDE": "Wien",
    "GEMEINDE_ID": 90000,
    "WGS84_LAT": 48.1743429921178,
    "WGS84_LON": 16.4153112162253,
    "STAND": 0
  },
  "214460531": {
    "TYP": "stop",
    "DIVA": 60200426,
    "NAME": "Grinzing",
    "GEMEINDE": "Wien",
    "GEMEINDE_ID": 90000,
    "WGS84_LAT": 48.2554888518158,
    "WGS84_LON": 16.3421498976445,
    "STAND": 0
  },
  "214460532": {
    "TYP": "stop",
    "DIVA": 60200427,
    "NAME": "Am Bahnhof",
    "GEMEINDE": "Wien",
    "GEMEINDE_ID": 90000,
    "WGS84_LAT": 48.2239464453706,
    "WGS84_LON": 16.451093257885,
    "STAND": 0
  },
  "214460533": {
    "TYP": "stop",
    "DIVA": 60200428,
    "NAME": "Grinzinger Straße",
    "GEMEINDE": "Wien",
    "GEMEINDE_ID": 90000,
    "WGS84_LAT": 48.2547568477701,
    "WGS84_LON": 16.3653663081209,
    "STAND": 0
  },
  "214460534": {
    "TYP": "stop",
    "DIVA": 60200429,
    "NAME": "Donaustadtstraße/Lange Allee",
    "GEMEINDE": "Wien",
    "GEMEINDE_ID": 90000,
    "WGS84_LAT": 48.2273792375334,
    "WGS84_LON": 16.4445192680791,
    "STAND": 0
  },
  "214460535": {
    "TYP": "stop",
    "DIVA": 60200430,
    "NAME": "Großer Biberhaufen",
    "GEMEINDE": "Wien",
    "GEMEINDE_ID": 90000,
    "WGS84_LAT": 48.2019699537852,
    "WGS84_LON": 16.4730528663973,
    "STAND": 0
  },
  "214460536": {
    "TYP": "stop",
    "DIVA": 60200431,
    "NAME": "Großjedlersdorf",
    "GEMEINDE": "Wien",
    "GEMEINDE_ID": 90000,
    "WGS84_LAT": 48.2765011216721,
    "WGS84_LON": 16.4085710955736,
    "STAND": 0
  },
  "214460537": {
    "TYP": "stop",
    "DIVA": 60200432,
    "NAME": "Großmarktstraße",
    "GEMEINDE": "Wien",
    "GEMEINDE_ID": 90000,
    "WGS84_LAT": 48.1464239597667,
    "WGS84_LON": 16.3669576423577,
    "STAND": 0
  },
  "214460538": {
    "TYP": "stop",
    "DIVA": 60200433,
    "NAME": "Grundäckergasse/Laaer-Berg-Str",
    "GEMEINDE": "Wien",
    "GEMEINDE_ID": 90000,
    "WGS84_LAT": 48.1389280127238,
    "WGS84_LON": 16.3998049701954,
    "STAND": 0
  },
  "214460539": {
    "TYP": "stop",
    "DIVA": 60200434,
    "NAME": "Gruschaplatz",
    "GEMEINDE": "Wien",
    "GEMEINDE_ID": 90000,
    "WGS84_LAT": 48.1953930404936,
    "WGS84_LON": 16.2826352685785,
    "STAND": 0
  },
  "214460540": {
    "TYP": "stop",
    "DIVA": 60200435,
    "NAME": "Gräßlplatz",
    "GEMEINDE": "Wien",
    "GEMEINDE_ID": 90000,
    "WGS84_LAT": 48.1766832316344,
    "WGS84_LON": 16.3973238203311,
    "STAND": 0
  },
  "214460541": {
    "TYP": "stop",
    "DIVA": 60200436,
    "NAME": "Gumpendorfer Straße",
    "GEMEINDE": "Wien",
    "GEMEINDE_ID": 90000,
    "WGS84_LAT": 48.1905491232843,
    "WGS84_LON": 16.3378383485559,
    "STAND": 0
  },
  "214460542": {
    "TYP": "stop",
    "DIVA": 60200437,
    "NAME": "Grenzgasse",
    "GEMEINDE": "Wien",
    "GEMEINDE_ID": 90000,
    "WGS84_LAT": 48.1932829019408,
    "WGS84_LON": 16.3296874184615,
    "STAND": 0
  },
  "214460543": {
    "TYP": "stop",
    "DIVA": 60200438,
    "NAME": "Guneschgasse",
    "GEMEINDE": "Wien",
    "GEMEINDE_ID": 90000,
    "WGS84_LAT": 48.2365301073457,
    "WGS84_LON": 16.3535498696925,
    "STAND": 0
  },
  "214460544": {
    "TYP": "stop",
    "DIVA": 60200439,
    "NAME": "Gunoldstraße",
    "GEMEINDE": "Wien",
    "GEMEINDE_ID": 90000,
    "WGS84_LAT": 48.2446584060241,
    "WGS84_LON": 16.3617118100434,
    "STAND": 0
  },